{
"type": "FeatureCollection",
"name": "evacuation_site",
"crs": { "type": "name", "properties": { "name": "urn:ogc:def:crs:OGC:1.3:CRS84" } },
"features": [
{ "type": "Feature", "properties": { "Name": "つつじヶ丘公園", "description": "説明: <br>id: 1", "timestamp": null, "begin": null, "end": null, "altitudeMode": null, "tessellate": -1, "extrude": 0, "visibility": -1, "drawOrder": null, "icon": null, "______": "", "id": "1" }, "geometry": { "type": "Point", "coordinates": [ 132.950585, 32.782526, 0.0 ] } },
{ "type": "Feature", "properties": { "Name": "足摺環境衛生入口", "description": "説明: <br>id: 1", "timestamp": null, "begin": null, "end": null, "altitudeMode": null, "tessellate": -1, "extrude": 0, "visibility": -1, "drawOrder": null, "icon": null, "______": "", "id": "1" }, "geometry": { "type": "Point", "coordinates": [ 132.947579, 32.784591, 0.0 ] } },
{ "type": "Feature", "properties": { "Name": "パールビル", "description": "説明: <br>id: 2", "timestamp": null, "begin": null, "end": null, "altitudeMode": null, "tessellate": -1, "extrude": 0, "visibility": -1, "drawOrder": null, "icon": null, "______": "", "id": "2" }, "geometry": { "type": "Point", "coordinates": [ 132.947436, 32.781325, 0.0 ] } },
{ "type": "Feature", "properties": { "Name": "金比羅山", "description": "説明: <br>id: 1", "timestamp": null, "begin": null, "end": null, "altitudeMode": null, "tessellate": -1, "extrude": 0, "visibility": -1, "drawOrder": null, "icon": null, "______": "", "id": "1" }, "geometry": { "type": "Point", "coordinates": [ 132.949745, 32.778414, 0.0 ] } },
{ "type": "Feature", "properties": { "Name": "西牧山", "description": "説明: <br>id: 1", "timestamp": null, "begin": null, "end": null, "altitudeMode": null, "tessellate": -1, "extrude": 0, "visibility": -1, "drawOrder": null, "icon": null, "______": "", "id": "1" }, "geometry": { "type": "Point", "coordinates": [ 132.948188, 32.777475, 0.0 ] } },
{ "type": "Feature", "properties": { "Name": "海のギャラリー裏山", "description": "説明: <br>id: 1", "timestamp": null, "begin": null, "end": null, "altitudeMode": null, "tessellate": -1, "extrude": 0, "visibility": -1, "drawOrder": null, "icon": null, "______": "", "id": "1" }, "geometry": { "type": "Point", "coordinates": [ 132.864675, 32.788189, 0.0 ] } },
{ "type": "Feature", "properties": { "Name": "平ノ段区長場", "description": "説明: <br>id: 1", "timestamp": null, "begin": null, "end": null, "altitudeMode": null, "tessellate": -1, "extrude": 0, "visibility": -1, "drawOrder": null, "icon": null, "______": "", "id": "1" }, "geometry": { "type": "Point", "coordinates": [ 132.866269, 32.796004, 0.0 ] } },
{ "type": "Feature", "properties": { "Name": "日吉神社", "description": "説明: <br>id: 1", "timestamp": null, "begin": null, "end": null, "altitudeMode": null, "tessellate": -1, "extrude": 0, "visibility": -1, "drawOrder": null, "icon": null, "______": "", "id": "1" }, "geometry": { "type": "Point", "coordinates": [ 132.866121, 32.797368, 0.0 ] } },
{ "type": "Feature", "properties": { "Name": "天皇神社上", "description": "説明: <br>id: 1", "timestamp": null, "begin": null, "end": null, "altitudeMode": null, "tessellate": -1, "extrude": 0, "visibility": -1, "drawOrder": null, "icon": null, "______": "", "id": "1" }, "geometry": { "type": "Point", "coordinates": [ 132.861615, 32.793855, 0.0 ] } },
{ "type": "Feature", "properties": { "Name": "オレンジ園", "description": "説明: <br>id: 1", "timestamp": null, "begin": null, "end": null, "altitudeMode": null, "tessellate": -1, "extrude": 0, "visibility": -1, "drawOrder": null, "icon": null, "______": "", "id": "1" }, "geometry": { "type": "Point", "coordinates": [ 132.858868, 32.791421, 0.0 ] } },
{ "type": "Feature", "properties": { "Name": "稗田", "description": "説明: <br>id: 1", "timestamp": null, "begin": null, "end": null, "altitudeMode": null, "tessellate": -1, "extrude": 0, "visibility": -1, "drawOrder": null, "icon": null, "______": "", "id": "1" }, "geometry": { "type": "Point", "coordinates": [ 132.868234, 32.791456, 0.0 ] } },
{ "type": "Feature", "properties": { "Name": "鎌田", "description": "説明: <br>id: 1", "timestamp": null, "begin": null, "end": null, "altitudeMode": null, "tessellate": -1, "extrude": 0, "visibility": -1, "drawOrder": null, "icon": null, "______": "", "id": "1" }, "geometry": { "type": "Point", "coordinates": [ 132.869642, 32.790346, 0.0 ] } },
{ "type": "Feature", "properties": { "Name": "千尋入り口", "description": "説明: <br>id: 1", "timestamp": null, "begin": null, "end": null, "altitudeMode": null, "tessellate": -1, "extrude": 0, "visibility": -1, "drawOrder": null, "icon": null, "______": "", "id": "1" }, "geometry": { "type": "Point", "coordinates": [ 132.871962, 32.787429, 0.0 ] } },
{ "type": "Feature", "properties": { "Name": "五代地北", "description": "説明: <br>id: 1", "timestamp": null, "begin": null, "end": null, "altitudeMode": null, "tessellate": -1, "extrude": 0, "visibility": -1, "drawOrder": null, "icon": null, "______": "", "id": "1" }, "geometry": { "type": "Point", "coordinates": [ 132.873253, 32.790079, 0.0 ] } },
{ "type": "Feature", "properties": { "Name": "五代地南", "description": "説明: <br>id: 1", "timestamp": null, "begin": null, "end": null, "altitudeMode": null, "tessellate": -1, "extrude": 0, "visibility": -1, "drawOrder": null, "icon": null, "______": "", "id": "1" }, "geometry": { "type": "Point", "coordinates": [ 132.872737, 32.789231, 0.0 ] } },
{ "type": "Feature", "properties": { "Name": "千尋岬展望所", "description": "説明: <br>id: 1", "timestamp": null, "begin": null, "end": null, "altitudeMode": null, "tessellate": -1, "extrude": 0, "visibility": -1, "drawOrder": null, "icon": null, "______": "", "id": "1" }, "geometry": { "type": "Point", "coordinates": [ 132.86727, 32.773058, 0.0 ] } },
{ "type": "Feature", "properties": { "Name": "荒神山", "description": "説明: <br>id: 1", "timestamp": null, "begin": null, "end": null, "altitudeMode": null, "tessellate": -1, "extrude": 0, "visibility": -1, "drawOrder": null, "icon": null, "______": "", "id": "1" }, "geometry": { "type": "Point", "coordinates": [ 132.873461, 32.798081, 0.0 ] } },
{ "type": "Feature", "properties": { "Name": "天満宮裏山", "description": "説明: <br>id: 1", "timestamp": null, "begin": null, "end": null, "altitudeMode": null, "tessellate": -1, "extrude": 0, "visibility": -1, "drawOrder": null, "icon": null, "______": "", "id": "1" }, "geometry": { "type": "Point", "coordinates": [ 132.876732, 32.794266, 0.0 ] } },
{ "type": "Feature", "properties": { "Name": "市民センター裏山", "description": "説明: <br>id: 1", "timestamp": null, "begin": null, "end": null, "altitudeMode": null, "tessellate": -1, "extrude": 0, "visibility": -1, "drawOrder": null, "icon": null, "______": "", "id": "1" }, "geometry": { "type": "Point", "coordinates": [ 132.877612, 32.792713, 0.0 ] } },
{ "type": "Feature", "properties": { "Name": "桜山", "description": "説明: <br>id: 1", "timestamp": null, "begin": null, "end": null, "altitudeMode": null, "tessellate": -1, "extrude": 0, "visibility": -1, "drawOrder": null, "icon": null, "______": "", "id": "1" }, "geometry": { "type": "Point", "coordinates": [ 132.879808, 32.79188, 0.0 ] } },
{ "type": "Feature", "properties": { "Name": "市営住宅", "description": "説明: <br>id: 1", "timestamp": null, "begin": null, "end": null, "altitudeMode": null, "tessellate": -1, "extrude": 0, "visibility": -1, "drawOrder": null, "icon": null, "______": "", "id": "1" }, "geometry": { "type": "Point", "coordinates": [ 132.880395, 32.794066, 0.0 ] } },
{ "type": "Feature", "properties": { "Name": "三崎保育園", "description": "説明: <br>id: 1", "timestamp": null, "begin": null, "end": null, "altitudeMode": null, "tessellate": -1, "extrude": 0, "visibility": -1, "drawOrder": null, "icon": null, "______": "", "id": "1" }, "geometry": { "type": "Point", "coordinates": [ 132.880609, 32.793839, 0.0 ] } },
{ "type": "Feature", "properties": { "Name": "倉松信雄宅裏山", "description": "説明: <br>id: 1", "timestamp": null, "begin": null, "end": null, "altitudeMode": null, "tessellate": -1, "extrude": 0, "visibility": -1, "drawOrder": null, "icon": null, "______": "", "id": "1" }, "geometry": { "type": "Point", "coordinates": [ 132.886826, 32.792894, 0.0 ] } },
{ "type": "Feature", "properties": { "Name": "仲間屋敷", "description": "説明: <br>id: 1", "timestamp": null, "begin": null, "end": null, "altitudeMode": null, "tessellate": -1, "extrude": 0, "visibility": -1, "drawOrder": null, "icon": null, "______": "", "id": "1" }, "geometry": { "type": "Point", "coordinates": [ 132.856871, 32.791321, 0.0 ] } },
{ "type": "Feature", "properties": { "Name": "サコ畑", "description": "説明: <br>id: 1", "timestamp": null, "begin": null, "end": null, "altitudeMode": null, "tessellate": -1, "extrude": 0, "visibility": -1, "drawOrder": null, "icon": null, "______": "", "id": "1" }, "geometry": { "type": "Point", "coordinates": [ 132.855557, 32.789509, 0.0 ] } },
{ "type": "Feature", "properties": { "Name": "榎田", "description": "説明: <br>id: 1", "timestamp": null, "begin": null, "end": null, "altitudeMode": null, "tessellate": -1, "extrude": 0, "visibility": -1, "drawOrder": null, "icon": null, "______": "", "id": "1" }, "geometry": { "type": "Point", "coordinates": [ 132.853434, 32.788371, 0.0 ] } },
{ "type": "Feature", "properties": { "Name": "横吹峠", "description": "説明: <br>id: 1", "timestamp": null, "begin": null, "end": null, "altitudeMode": null, "tessellate": -1, "extrude": 0, "visibility": -1, "drawOrder": null, "icon": null, "______": "", "id": "1" }, "geometry": { "type": "Point", "coordinates": [ 132.844818, 32.784235, 0.0 ] } },
{ "type": "Feature", "properties": { "Name": "春日神社", "description": "説明: <br>id: 1", "timestamp": null, "begin": null, "end": null, "altitudeMode": null, "tessellate": -1, "extrude": 0, "visibility": -1, "drawOrder": null, "icon": null, "______": "", "id": "1" }, "geometry": { "type": "Point", "coordinates": [ 132.84035, 32.782695, 0.0 ] } },
{ "type": "Feature", "properties": { "Name": "天満宮上", "description": "説明: <br>id: 1", "timestamp": null, "begin": null, "end": null, "altitudeMode": null, "tessellate": -1, "extrude": 0, "visibility": -1, "drawOrder": null, "icon": null, "______": "", "id": "1" }, "geometry": { "type": "Point", "coordinates": [ 132.837516, 32.786069, 0.0 ] } },
{ "type": "Feature", "properties": { "Name": "天満宮横", "description": "説明: <br>id: 1", "timestamp": null, "begin": null, "end": null, "altitudeMode": null, "tessellate": -1, "extrude": 0, "visibility": -1, "drawOrder": null, "icon": null, "______": "", "id": "1" }, "geometry": { "type": "Point", "coordinates": [ 132.837884, 32.786283, 0.0 ] } },
{ "type": "Feature", "properties": { "Name": "忠魂墓地", "description": "説明: <br>id: 1", "timestamp": null, "begin": null, "end": null, "altitudeMode": null, "tessellate": -1, "extrude": 0, "visibility": -1, "drawOrder": null, "icon": null, "______": "", "id": "1" }, "geometry": { "type": "Point", "coordinates": [ 132.834242, 32.786372, 0.0 ] } },
{ "type": "Feature", "properties": { "Name": "経塚さん", "description": "説明: <br>id: 1", "timestamp": null, "begin": null, "end": null, "altitudeMode": null, "tessellate": -1, "extrude": 0, "visibility": -1, "drawOrder": null, "icon": null, "______": "", "id": "1" }, "geometry": { "type": "Point", "coordinates": [ 132.832877, 32.786989, 0.0 ] } },
{ "type": "Feature", "properties": { "Name": "社会福祉センター", "description": "説明: <br>id: 2", "timestamp": null, "begin": null, "end": null, "altitudeMode": null, "tessellate": -1, "extrude": 0, "visibility": -1, "drawOrder": null, "icon": null, "______": "", "id": "2" }, "geometry": { "type": "Point", "coordinates": [ 132.951657, 32.778892, 0.0 ] } },
{ "type": "Feature", "properties": { "Name": "宮口宅付近", "description": "説明: <br>id: 1", "timestamp": null, "begin": null, "end": null, "altitudeMode": null, "tessellate": -1, "extrude": 0, "visibility": -1, "drawOrder": null, "icon": null, "______": "", "id": "1" }, "geometry": { "type": "Point", "coordinates": [ 132.952936, 32.777234, 0.0 ] } },
{ "type": "Feature", "properties": { "Name": "墓地駐車場", "description": "説明: <br>id: 1", "timestamp": null, "begin": null, "end": null, "altitudeMode": null, "tessellate": -1, "extrude": 0, "visibility": -1, "drawOrder": null, "icon": null, "______": "", "id": "1" }, "geometry": { "type": "Point", "coordinates": [ 132.953606, 32.777269, 0.0 ] } },
{ "type": "Feature", "properties": { "Name": "播磨水産の奥", "description": "説明: <br>id: 1", "timestamp": null, "begin": null, "end": null, "altitudeMode": null, "tessellate": -1, "extrude": 0, "visibility": -1, "drawOrder": null, "icon": null, "______": "", "id": "1" }, "geometry": { "type": "Point", "coordinates": [ 132.952266, 32.77545, 0.0 ] } },
{ "type": "Feature", "properties": { "Name": "琴平宮", "description": "説明: <br>id: 1", "timestamp": null, "begin": null, "end": null, "altitudeMode": null, "tessellate": -1, "extrude": 0, "visibility": -1, "drawOrder": null, "icon": null, "______": "", "id": "1" }, "geometry": { "type": "Point", "coordinates": [ 132.954674, 32.775553, 0.0 ] } },
{ "type": "Feature", "properties": { "Name": "第一避難所", "description": "説明: <br>id: 1", "timestamp": null, "begin": null, "end": null, "altitudeMode": null, "tessellate": -1, "extrude": 0, "visibility": -1, "drawOrder": null, "icon": null, "______": "", "id": "1" }, "geometry": { "type": "Point", "coordinates": [ 132.955001, 32.774676, 0.0 ] } },
{ "type": "Feature", "properties": { "Name": "NTT西日本土佐清水電話交換所", "description": "説明: <br>id: 2", "timestamp": null, "begin": null, "end": null, "altitudeMode": null, "tessellate": -1, "extrude": 0, "visibility": -1, "drawOrder": null, "icon": null, "______": "", "id": "2" }, "geometry": { "type": "Point", "coordinates": [ 132.9554, 32.779921, 0.0 ] } },
{ "type": "Feature", "properties": { "Name": "清水小学校", "description": "説明: <br>id: 4", "timestamp": null, "begin": null, "end": null, "altitudeMode": null, "tessellate": -1, "extrude": 0, "visibility": -1, "drawOrder": null, "icon": null, "______": "", "id": "4" }, "geometry": { "type": "Point", "coordinates": [ 132.952689, 32.781602, 0.0 ] } },
{ "type": "Feature", "properties": { "Name": "墓地下", "description": "説明: <br>id: 1", "timestamp": null, "begin": null, "end": null, "altitudeMode": null, "tessellate": -1, "extrude": 0, "visibility": -1, "drawOrder": null, "icon": null, "______": "", "id": "1" }, "geometry": { "type": "Point", "coordinates": [ 132.952295, 32.783041, 0.0 ] } },
{ "type": "Feature", "properties": { "Name": "市役所上", "description": "説明: <br>id: 1", "timestamp": null, "begin": null, "end": null, "altitudeMode": null, "tessellate": -1, "extrude": 0, "visibility": -1, "drawOrder": null, "icon": null, "______": "", "id": "1" }, "geometry": { "type": "Point", "coordinates": [ 132.95491, 32.782192, 0.0 ] } },
{ "type": "Feature", "properties": { "Name": "中央公民館", "description": "説明: <br>id: 3", "timestamp": null, "begin": null, "end": null, "altitudeMode": null, "tessellate": -1, "extrude": 0, "visibility": -1, "drawOrder": null, "icon": null, "______": "", "id": "3" }, "geometry": { "type": "Point", "coordinates": [ 132.955525, 32.781343, 0.0 ] } },
{ "type": "Feature", "properties": { "Name": "寺山", "description": "説明: <br>id: 1", "timestamp": null, "begin": null, "end": null, "altitudeMode": null, "tessellate": -1, "extrude": 0, "visibility": -1, "drawOrder": null, "icon": null, "______": "", "id": "1" }, "geometry": { "type": "Point", "coordinates": [ 132.956774, 32.781463, 0.0 ] } },
{ "type": "Feature", "properties": { "Name": "蓮光寺", "description": "説明: <br>id: 1", "timestamp": null, "begin": null, "end": null, "altitudeMode": null, "tessellate": -1, "extrude": 0, "visibility": -1, "drawOrder": null, "icon": null, "______": "", "id": "1" }, "geometry": { "type": "Point", "coordinates": [ 132.956862, 32.780061, 0.0 ] } },
{ "type": "Feature", "properties": { "Name": "山神町", "description": "説明: <br>id: 1", "timestamp": null, "begin": null, "end": null, "altitudeMode": null, "tessellate": -1, "extrude": 0, "visibility": -1, "drawOrder": null, "icon": null, "______": "", "id": "1" }, "geometry": { "type": "Point", "coordinates": [ 132.957432, 32.78292, 0.0 ] } },
{ "type": "Feature", "properties": { "Name": "都計", "description": "説明: <br>id: 1", "timestamp": null, "begin": null, "end": null, "altitudeMode": null, "tessellate": -1, "extrude": 0, "visibility": -1, "drawOrder": null, "icon": null, "______": "", "id": "1" }, "geometry": { "type": "Point", "coordinates": [ 132.957601, 32.782433, 0.0 ] } },
{ "type": "Feature", "properties": { "Name": "水呉", "description": "説明: <br>id: 1", "timestamp": null, "begin": null, "end": null, "altitudeMode": null, "tessellate": -1, "extrude": 0, "visibility": -1, "drawOrder": null, "icon": null, "______": "", "id": "1" }, "geometry": { "type": "Point", "coordinates": [ 132.959392, 32.782674, 0.0 ] } },
{ "type": "Feature", "properties": { "Name": "旭ヶ丘", "description": "説明: <br>id: 1", "timestamp": null, "begin": null, "end": null, "altitudeMode": null, "tessellate": -1, "extrude": 0, "visibility": -1, "drawOrder": null, "icon": null, "______": "", "id": "1" }, "geometry": { "type": "Point", "coordinates": [ 132.961265, 32.782574, 0.0 ] } },
{ "type": "Feature", "properties": { "Name": "鹿島ヶ丘", "description": "説明: <br>id: 1", "timestamp": null, "begin": null, "end": null, "altitudeMode": null, "tessellate": -1, "extrude": 0, "visibility": -1, "drawOrder": null, "icon": null, "______": "", "id": "1" }, "geometry": { "type": "Point", "coordinates": [ 132.962392, 32.780324, 0.0 ] } },
{ "type": "Feature", "properties": { "Name": "清水中学校", "description": "説明: <br>id: 3", "timestamp": null, "begin": null, "end": null, "altitudeMode": null, "tessellate": -1, "extrude": 0, "visibility": -1, "drawOrder": null, "icon": null, "______": "", "id": "3" }, "geometry": { "type": "Point", "coordinates": [ 132.958371, 32.785401, 0.0 ] } },
{ "type": "Feature", "properties": { "Name": "きらら清水保育園", "description": "説明: <br>id: 3", "timestamp": null, "begin": null, "end": null, "altitudeMode": null, "tessellate": -1, "extrude": 0, "visibility": -1, "drawOrder": null, "icon": null, "______": "", "id": "3" }, "geometry": { "type": "Point", "coordinates": [ 132.9571, 32.786391, 0.0 ] } },
{ "type": "Feature", "properties": { "Name": "地蔵谷", "description": "説明: <br>id: 1", "timestamp": null, "begin": null, "end": null, "altitudeMode": null, "tessellate": -1, "extrude": 0, "visibility": -1, "drawOrder": null, "icon": null, "______": "", "id": "1" }, "geometry": { "type": "Point", "coordinates": [ 132.951921, 32.773854, 0.0 ] } },
{ "type": "Feature", "properties": { "Name": "恵比須神社の上", "description": "説明: <br>id: 1", "timestamp": null, "begin": null, "end": null, "altitudeMode": null, "tessellate": -1, "extrude": 0, "visibility": -1, "drawOrder": null, "icon": null, "______": "", "id": "1" }, "geometry": { "type": "Point", "coordinates": [ 132.954118, 32.77273, 0.0 ] } },
{ "type": "Feature", "properties": { "Name": "尾浦", "description": "説明: <br>id: 1", "timestamp": null, "begin": null, "end": null, "altitudeMode": null, "tessellate": -1, "extrude": 0, "visibility": -1, "drawOrder": null, "icon": null, "______": "", "id": "1" }, "geometry": { "type": "Point", "coordinates": [ 132.953174, 32.773201, 0.0 ] } },
{ "type": "Feature", "properties": { "Name": "市営住宅跡地", "description": "説明: <br>id: 1", "timestamp": null, "begin": null, "end": null, "altitudeMode": null, "tessellate": -1, "extrude": 0, "visibility": -1, "drawOrder": null, "icon": null, "______": "", "id": "1" }, "geometry": { "type": "Point", "coordinates": [ 132.963762, 32.777739, 0.0 ] } },
{ "type": "Feature", "properties": { "Name": "市営住宅付近", "description": "説明: <br>id: 1", "timestamp": null, "begin": null, "end": null, "altitudeMode": null, "tessellate": -1, "extrude": 0, "visibility": -1, "drawOrder": null, "icon": null, "______": "", "id": "1" }, "geometry": { "type": "Point", "coordinates": [ 132.965286, 32.77735, 0.0 ] } },
{ "type": "Feature", "properties": { "Name": "畑", "description": "説明: <br>id: 1", "timestamp": null, "begin": null, "end": null, "altitudeMode": null, "tessellate": -1, "extrude": 0, "visibility": -1, "drawOrder": null, "icon": null, "______": "", "id": "1" }, "geometry": { "type": "Point", "coordinates": [ 132.965924, 32.776416, 0.0 ] } },
{ "type": "Feature", "properties": { "Name": "スカイライン上", "description": "説明: <br>id: 1", "timestamp": null, "begin": null, "end": null, "altitudeMode": null, "tessellate": -1, "extrude": 0, "visibility": -1, "drawOrder": null, "icon": null, "______": "", "id": "1" }, "geometry": { "type": "Point", "coordinates": [ 132.969714, 32.77239, 0.0 ] } },
{ "type": "Feature", "properties": { "Name": "土佐清水市斎場", "description": "説明: <br>id: 1", "timestamp": null, "begin": null, "end": null, "altitudeMode": null, "tessellate": -1, "extrude": 0, "visibility": -1, "drawOrder": null, "icon": null, "______": "", "id": "1" }, "geometry": { "type": "Point", "coordinates": [ 132.972183, 32.7728, 0.0 ] } },
{ "type": "Feature", "properties": { "Name": "中平公文宅上の山", "description": "説明: <br>id: 1", "timestamp": null, "begin": null, "end": null, "altitudeMode": null, "tessellate": -1, "extrude": 0, "visibility": -1, "drawOrder": null, "icon": null, "______": "", "id": "1" }, "geometry": { "type": "Point", "coordinates": [ 132.972667, 32.776038, 0.0 ] } },
{ "type": "Feature", "properties": { "Name": "ニツチ山", "description": "説明: <br>id: 1", "timestamp": null, "begin": null, "end": null, "altitudeMode": null, "tessellate": -1, "extrude": 0, "visibility": -1, "drawOrder": null, "icon": null, "______": "", "id": "1" }, "geometry": { "type": "Point", "coordinates": [ 132.971942, 32.780938, 0.0 ] } },
{ "type": "Feature", "properties": { "Name": "八坂神社", "description": "説明: <br>id: 1", "timestamp": null, "begin": null, "end": null, "altitudeMode": null, "tessellate": -1, "extrude": 0, "visibility": -1, "drawOrder": null, "icon": null, "______": "", "id": "1" }, "geometry": { "type": "Point", "coordinates": [ 132.973925, 32.781504, 0.0 ] } },
{ "type": "Feature", "properties": { "Name": "浦尻公会堂上の畑", "description": "説明: <br>id: 1", "timestamp": null, "begin": null, "end": null, "altitudeMode": null, "tessellate": -1, "extrude": 0, "visibility": -1, "drawOrder": null, "icon": null, "______": "", "id": "1" }, "geometry": { "type": "Point", "coordinates": [ 132.972921, 32.78365, 0.0 ] } },
{ "type": "Feature", "properties": { "Name": "上原吾一宅裏山", "description": "説明: <br>id: 1", "timestamp": null, "begin": null, "end": null, "altitudeMode": null, "tessellate": -1, "extrude": 0, "visibility": -1, "drawOrder": null, "icon": null, "______": "", "id": "1" }, "geometry": { "type": "Point", "coordinates": [ 132.969701, 32.783252, 0.0 ] } },
{ "type": "Feature", "properties": { "Name": "以布利谷", "description": "説明: <br>id: 1", "timestamp": null, "begin": null, "end": null, "altitudeMode": null, "tessellate": -1, "extrude": 0, "visibility": -1, "drawOrder": null, "icon": null, "______": "", "id": "1" }, "geometry": { "type": "Point", "coordinates": [ 132.968644, 32.784813, 0.0 ] } },
{ "type": "Feature", "properties": { "Name": "八幡宮", "description": "説明: <br>id: 1", "timestamp": null, "begin": null, "end": null, "altitudeMode": null, "tessellate": -1, "extrude": 0, "visibility": -1, "drawOrder": null, "icon": null, "______": "", "id": "1" }, "geometry": { "type": "Point", "coordinates": [ 133.001575, 32.895781, 0.0 ] } },
{ "type": "Feature", "properties": { "Name": "墓地", "description": "説明: <br>id: 1", "timestamp": null, "begin": null, "end": null, "altitudeMode": null, "tessellate": -1, "extrude": 0, "visibility": -1, "drawOrder": null, "icon": null, "______": "", "id": "1" }, "geometry": { "type": "Point", "coordinates": [ 132.998299, 32.896129, 0.0 ] } },
{ "type": "Feature", "properties": { "Name": "山の神の上の高台", "description": "説明: <br>id: 1", "timestamp": null, "begin": null, "end": null, "altitudeMode": null, "tessellate": -1, "extrude": 0, "visibility": -1, "drawOrder": null, "icon": null, "______": "", "id": "1" }, "geometry": { "type": "Point", "coordinates": [ 132.994807, 32.897818, 0.0 ] } },
{ "type": "Feature", "properties": { "Name": "旧立石小学校", "description": "説明: <br>id: 3", "timestamp": null, "begin": null, "end": null, "altitudeMode": null, "tessellate": -1, "extrude": 0, "visibility": -1, "drawOrder": null, "icon": null, "______": "", "id": "3" }, "geometry": { "type": "Point", "coordinates": [ 132.99463, 32.897035, 0.0 ] } },
{ "type": "Feature", "properties": { "Name": "大久保の上", "description": "説明: <br>id: 1", "timestamp": null, "begin": null, "end": null, "altitudeMode": null, "tessellate": -1, "extrude": 0, "visibility": -1, "drawOrder": null, "icon": null, "______": "", "id": "1" }, "geometry": { "type": "Point", "coordinates": [ 132.996123, 32.895117, 0.0 ] } },
{ "type": "Feature", "properties": { "Name": "東谷共同作業所", "description": "説明: <br>id: 1", "timestamp": null, "begin": null, "end": null, "altitudeMode": null, "tessellate": -1, "extrude": 0, "visibility": -1, "drawOrder": null, "icon": null, "______": "", "id": "1" }, "geometry": { "type": "Point", "coordinates": [ 132.990167, 32.868157, 0.0 ] } },
{ "type": "Feature", "properties": { "Name": "東谷第3団地（市営住宅）の公園", "description": "説明: <br>id: 1", "timestamp": null, "begin": null, "end": null, "altitudeMode": null, "tessellate": -1, "extrude": 0, "visibility": -1, "drawOrder": null, "icon": null, "______": "", "id": "1" }, "geometry": { "type": "Point", "coordinates": [ 132.987397, 32.868551, 0.0 ] } },
{ "type": "Feature", "properties": { "Name": "智円寺上の市道", "description": "説明: <br>id: 1", "timestamp": null, "begin": null, "end": null, "altitudeMode": null, "tessellate": -1, "extrude": 0, "visibility": -1, "drawOrder": null, "icon": null, "______": "", "id": "1" }, "geometry": { "type": "Point", "coordinates": [ 132.98791, 32.869221, 0.0 ] } },
{ "type": "Feature", "properties": { "Name": "高手神社の上", "description": "説明: <br>id: 1", "timestamp": null, "begin": null, "end": null, "altitudeMode": null, "tessellate": -1, "extrude": 0, "visibility": -1, "drawOrder": null, "icon": null, "______": "", "id": "1" }, "geometry": { "type": "Point", "coordinates": [ 132.986086, 32.87003, 0.0 ] } },
{ "type": "Feature", "properties": { "Name": "熊井義行宅裏山", "description": "説明: <br>id: 1", "timestamp": null, "begin": null, "end": null, "altitudeMode": null, "tessellate": -1, "extrude": 0, "visibility": -1, "drawOrder": null, "icon": null, "______": "", "id": "1" }, "geometry": { "type": "Point", "coordinates": [ 132.985512, 32.871099, 0.0 ] } },
{ "type": "Feature", "properties": { "Name": "山脇雪春宅裏山", "description": "説明: <br>id: 1", "timestamp": null, "begin": null, "end": null, "altitudeMode": null, "tessellate": -1, "extrude": 0, "visibility": -1, "drawOrder": null, "icon": null, "______": "", "id": "1" }, "geometry": { "type": "Point", "coordinates": [ 132.985048, 32.872145, 0.0 ] } },
{ "type": "Feature", "properties": { "Name": "沖操宅の上", "description": "説明: <br>id: 1", "timestamp": null, "begin": null, "end": null, "altitudeMode": null, "tessellate": -1, "extrude": 0, "visibility": -1, "drawOrder": null, "icon": null, "______": "", "id": "1" }, "geometry": { "type": "Point", "coordinates": [ 132.981588, 32.872971, 0.0 ] } },
{ "type": "Feature", "properties": { "Name": "高嶽山の上", "description": "説明: <br>id: 1", "timestamp": null, "begin": null, "end": null, "altitudeMode": null, "tessellate": -1, "extrude": 0, "visibility": -1, "drawOrder": null, "icon": null, "______": "", "id": "1" }, "geometry": { "type": "Point", "coordinates": [ 132.981426, 32.87218, 0.0 ] } },
{ "type": "Feature", "properties": { "Name": "横山誠宅前の山", "description": "説明: <br>id: 1", "timestamp": null, "begin": null, "end": null, "altitudeMode": null, "tessellate": -1, "extrude": 0, "visibility": -1, "drawOrder": null, "icon": null, "______": "", "id": "1" }, "geometry": { "type": "Point", "coordinates": [ 132.979621, 32.870959, 0.0 ] } },
{ "type": "Feature", "properties": { "Name": "西光寺の上", "description": "説明: <br>id: 1", "timestamp": null, "begin": null, "end": null, "altitudeMode": null, "tessellate": -1, "extrude": 0, "visibility": -1, "drawOrder": null, "icon": null, "______": "", "id": "1" }, "geometry": { "type": "Point", "coordinates": [ 132.981517, 32.868462, 0.0 ] } },
{ "type": "Feature", "properties": { "Name": "天満宮", "description": "説明: <br>id: 1", "timestamp": null, "begin": null, "end": null, "altitudeMode": null, "tessellate": -1, "extrude": 0, "visibility": -1, "drawOrder": null, "icon": null, "______": "", "id": "1" }, "geometry": { "type": "Point", "coordinates": [ 132.983037, 32.867618, 0.0 ] } },
{ "type": "Feature", "properties": { "Name": "三次郎谷", "description": "説明: <br>id: 1", "timestamp": null, "begin": null, "end": null, "altitudeMode": null, "tessellate": -1, "extrude": 0, "visibility": -1, "drawOrder": null, "icon": null, "______": "", "id": "1" }, "geometry": { "type": "Point", "coordinates": [ 132.982188, 32.86696, 0.0 ] } },
{ "type": "Feature", "properties": { "Name": "墓地下", "description": "説明: <br>id: 1", "timestamp": null, "begin": null, "end": null, "altitudeMode": null, "tessellate": -1, "extrude": 0, "visibility": -1, "drawOrder": null, "icon": null, "______": "", "id": "1" }, "geometry": { "type": "Point", "coordinates": [ 132.981798, 32.867015, 0.0 ] } },
{ "type": "Feature", "properties": { "Name": "橘不二男宅庭", "description": "説明: <br>id: 1", "timestamp": null, "begin": null, "end": null, "altitudeMode": null, "tessellate": -1, "extrude": 0, "visibility": -1, "drawOrder": null, "icon": null, "______": "", "id": "1" }, "geometry": { "type": "Point", "coordinates": [ 132.982709, 32.866338, 0.0 ] } },
{ "type": "Feature", "properties": { "Name": "カルト谷", "description": "説明: <br>id: 1", "timestamp": null, "begin": null, "end": null, "altitudeMode": null, "tessellate": -1, "extrude": 0, "visibility": -1, "drawOrder": null, "icon": null, "______": "", "id": "1" }, "geometry": { "type": "Point", "coordinates": [ 132.959917, 32.865717, 0.0 ] } },
{ "type": "Feature", "properties": { "Name": "下ノ加江地区防災コミュニティセンター", "description": "説明: <br>id: 4", "timestamp": null, "begin": null, "end": null, "altitudeMode": null, "tessellate": -1, "extrude": 0, "visibility": -1, "drawOrder": null, "icon": null, "______": "", "id": "4" }, "geometry": { "type": "Point", "coordinates": [ 132.9579, 32.864224, 0.0 ] } },
{ "type": "Feature", "properties": { "Name": "下ノ加江市民センター裏山", "description": "説明: <br>id: 1", "timestamp": null, "begin": null, "end": null, "altitudeMode": null, "tessellate": -1, "extrude": 0, "visibility": -1, "drawOrder": null, "icon": null, "______": "", "id": "1" }, "geometry": { "type": "Point", "coordinates": [ 132.954554, 32.867391, 0.0 ] } },
{ "type": "Feature", "properties": { "Name": "下若宮宮", "description": "説明: <br>id: 1", "timestamp": null, "begin": null, "end": null, "altitudeMode": null, "tessellate": -1, "extrude": 0, "visibility": -1, "drawOrder": null, "icon": null, "______": "", "id": "1" }, "geometry": { "type": "Point", "coordinates": [ 132.953165, 32.868251, 0.0 ] } },
{ "type": "Feature", "properties": { "Name": "上若宮宮", "description": "説明: <br>id: 1", "timestamp": null, "begin": null, "end": null, "altitudeMode": null, "tessellate": -1, "extrude": 0, "visibility": -1, "drawOrder": null, "icon": null, "______": "", "id": "1" }, "geometry": { "type": "Point", "coordinates": [ 132.950916, 32.870855, 0.0 ] } },
{ "type": "Feature", "properties": { "Name": "小山", "description": "説明: <br>id: 1", "timestamp": null, "begin": null, "end": null, "altitudeMode": null, "tessellate": -1, "extrude": 0, "visibility": -1, "drawOrder": null, "icon": null, "______": "", "id": "1" }, "geometry": { "type": "Point", "coordinates": [ 132.950086, 32.871663, 0.0 ] } },
{ "type": "Feature", "properties": { "Name": "お墓", "description": "説明: <br>id: 1", "timestamp": null, "begin": null, "end": null, "altitudeMode": null, "tessellate": -1, "extrude": 0, "visibility": -1, "drawOrder": null, "icon": null, "______": "", "id": "1" }, "geometry": { "type": "Point", "coordinates": [ 132.9475, 32.872704, 0.0 ] } },
{ "type": "Feature", "properties": { "Name": "橋本幸三宅上", "description": "説明: <br>id: 1", "timestamp": null, "begin": null, "end": null, "altitudeMode": null, "tessellate": -1, "extrude": 0, "visibility": -1, "drawOrder": null, "icon": null, "______": "", "id": "1" }, "geometry": { "type": "Point", "coordinates": [ 132.946742, 32.874991, 0.0 ] } },
{ "type": "Feature", "properties": { "Name": "旧坂本医院の上（安田宅裏山）", "description": "説明: <br>id: 1", "timestamp": null, "begin": null, "end": null, "altitudeMode": null, "tessellate": -1, "extrude": 0, "visibility": -1, "drawOrder": null, "icon": null, "______": "", "id": "1" }, "geometry": { "type": "Point", "coordinates": [ 132.947283, 32.873841, 0.0 ] } },
{ "type": "Feature", "properties": { "Name": "下ノ加江保育園の上", "description": "説明: <br>id: 1", "timestamp": null, "begin": null, "end": null, "altitudeMode": null, "tessellate": -1, "extrude": 0, "visibility": -1, "drawOrder": null, "icon": null, "______": "", "id": "1" }, "geometry": { "type": "Point", "coordinates": [ 132.945454, 32.876977, 0.0 ] } },
{ "type": "Feature", "properties": { "Name": "観音さん", "description": "説明: <br>id: 1", "timestamp": null, "begin": null, "end": null, "altitudeMode": null, "tessellate": -1, "extrude": 0, "visibility": -1, "drawOrder": null, "icon": null, "______": "", "id": "1" }, "geometry": { "type": "Point", "coordinates": [ 132.938682, 32.878692, 0.0 ] } },
{ "type": "Feature", "properties": { "Name": "木下宅倉庫上", "description": "説明: <br>id: 1", "timestamp": null, "begin": null, "end": null, "altitudeMode": null, "tessellate": -1, "extrude": 0, "visibility": -1, "drawOrder": null, "icon": null, "______": "", "id": "1" }, "geometry": { "type": "Point", "coordinates": [ 132.939122, 32.876224, 0.0 ] } },
{ "type": "Feature", "properties": { "Name": "馬路上水タンク", "description": "説明: <br>id: 1", "timestamp": null, "begin": null, "end": null, "altitudeMode": null, "tessellate": -1, "extrude": 0, "visibility": -1, "drawOrder": null, "icon": null, "______": "", "id": "1" }, "geometry": { "type": "Point", "coordinates": [ 132.942165, 32.871541, 0.0 ] } },
{ "type": "Feature", "properties": { "Name": "八坂神社", "description": "説明: <br>id: 1", "timestamp": null, "begin": null, "end": null, "altitudeMode": null, "tessellate": -1, "extrude": 0, "visibility": -1, "drawOrder": null, "icon": null, "______": "", "id": "1" }, "geometry": { "type": "Point", "coordinates": [ 132.944783, 32.867725, 0.0 ] } },
{ "type": "Feature", "properties": { "Name": "お墓", "description": "説明: <br>id: 1", "timestamp": null, "begin": null, "end": null, "altitudeMode": null, "tessellate": -1, "extrude": 0, "visibility": -1, "drawOrder": null, "icon": null, "______": "", "id": "1" }, "geometry": { "type": "Point", "coordinates": [ 132.945943, 32.866447, 0.0 ] } },
{ "type": "Feature", "properties": { "Name": "摺木谷急傾上", "description": "説明: <br>id: 1", "timestamp": null, "begin": null, "end": null, "altitudeMode": null, "tessellate": -1, "extrude": 0, "visibility": -1, "drawOrder": null, "icon": null, "______": "", "id": "1" }, "geometry": { "type": "Point", "coordinates": [ 132.945877, 32.865521, 0.0 ] } },
{ "type": "Feature", "properties": { "Name": "お墓の上", "description": "説明: <br>id: 1", "timestamp": null, "begin": null, "end": null, "altitudeMode": null, "tessellate": -1, "extrude": 0, "visibility": -1, "drawOrder": null, "icon": null, "______": "", "id": "1" }, "geometry": { "type": "Point", "coordinates": [ 132.948742, 32.864414, 0.0 ] } },
{ "type": "Feature", "properties": { "Name": "鍵掛防災倉庫", "description": "説明: <br>id: 1", "timestamp": null, "begin": null, "end": null, "altitudeMode": null, "tessellate": -1, "extrude": 0, "visibility": -1, "drawOrder": null, "icon": null, "______": "", "id": "1" }, "geometry": { "type": "Point", "coordinates": [ 132.950075, 32.86131, 0.0 ] } },
{ "type": "Feature", "properties": { "Name": "鍵掛集会所", "description": "説明: <br>id: 1", "timestamp": null, "begin": null, "end": null, "altitudeMode": null, "tessellate": -1, "extrude": 0, "visibility": -1, "drawOrder": null, "icon": null, "______": "", "id": "1" }, "geometry": { "type": "Point", "coordinates": [ 132.949089, 32.859164, 0.0 ] } },
{ "type": "Feature", "properties": { "Name": "観音山", "description": "説明: <br>id: 1", "timestamp": null, "begin": null, "end": null, "altitudeMode": null, "tessellate": -1, "extrude": 0, "visibility": -1, "drawOrder": null, "icon": null, "______": "", "id": "1" }, "geometry": { "type": "Point", "coordinates": [ 132.941276, 32.887697, 0.0 ] } },
{ "type": "Feature", "properties": { "Name": "集会所裏山", "description": "説明: <br>id: 1", "timestamp": null, "begin": null, "end": null, "altitudeMode": null, "tessellate": -1, "extrude": 0, "visibility": -1, "drawOrder": null, "icon": null, "______": "", "id": "1" }, "geometry": { "type": "Point", "coordinates": [ 132.939244, 32.890061, 0.0 ] } },
{ "type": "Feature", "properties": { "Name": "小川（コガ）", "description": "説明: <br>id: 1", "timestamp": null, "begin": null, "end": null, "altitudeMode": null, "tessellate": -1, "extrude": 0, "visibility": -1, "drawOrder": null, "icon": null, "______": "", "id": "1" }, "geometry": { "type": "Point", "coordinates": [ 132.939783, 32.890953, 0.0 ] } },
{ "type": "Feature", "properties": { "Name": "ナカマエ", "description": "説明: <br>id: 1", "timestamp": null, "begin": null, "end": null, "altitudeMode": null, "tessellate": -1, "extrude": 0, "visibility": -1, "drawOrder": null, "icon": null, "______": "", "id": "1" }, "geometry": { "type": "Point", "coordinates": [ 132.938662, 32.888462, 0.0 ] } },
{ "type": "Feature", "properties": { "Name": "下地区急傾上", "description": "説明: <br>id: 1", "timestamp": null, "begin": null, "end": null, "altitudeMode": null, "tessellate": -1, "extrude": 0, "visibility": -1, "drawOrder": null, "icon": null, "______": "", "id": "1" }, "geometry": { "type": "Point", "coordinates": [ 132.938653, 32.887389, 0.0 ] } },
{ "type": "Feature", "properties": { "Name": "安田實・安田資招宅裏山", "description": "説明: <br>id: 1", "timestamp": null, "begin": null, "end": null, "altitudeMode": null, "tessellate": -1, "extrude": 0, "visibility": -1, "drawOrder": null, "icon": null, "______": "", "id": "1" }, "geometry": { "type": "Point", "coordinates": [ 132.937844, 32.886367, 0.0 ] } },
{ "type": "Feature", "properties": { "Name": "お墓", "description": "説明: <br>id: 1", "timestamp": null, "begin": null, "end": null, "altitudeMode": null, "tessellate": -1, "extrude": 0, "visibility": -1, "drawOrder": null, "icon": null, "______": "", "id": "1" }, "geometry": { "type": "Point", "coordinates": [ 132.951679, 32.843476, 0.0 ] } },
{ "type": "Feature", "properties": { "Name": "水槽", "description": "説明: <br>id: 1", "timestamp": null, "begin": null, "end": null, "altitudeMode": null, "tessellate": -1, "extrude": 0, "visibility": -1, "drawOrder": null, "icon": null, "______": "", "id": "1" }, "geometry": { "type": "Point", "coordinates": [ 132.951501, 32.842749, 0.0 ] } },
{ "type": "Feature", "properties": { "Name": "久百々防災倉庫", "description": "説明: <br>id: 1", "timestamp": null, "begin": null, "end": null, "altitudeMode": null, "tessellate": -1, "extrude": 0, "visibility": -1, "drawOrder": null, "icon": null, "______": "", "id": "1" }, "geometry": { "type": "Point", "coordinates": [ 132.95487, 32.83991, 0.0 ] } },
{ "type": "Feature", "properties": { "Name": "垣坪神社の上", "description": "説明: <br>id: 1", "timestamp": null, "begin": null, "end": null, "altitudeMode": null, "tessellate": -1, "extrude": 0, "visibility": -1, "drawOrder": null, "icon": null, "______": "", "id": "1" }, "geometry": { "type": "Point", "coordinates": [ 132.948567, 32.826596, 0.0 ] } },
{ "type": "Feature", "properties": { "Name": "東ノ段", "description": "説明: <br>id: 1", "timestamp": null, "begin": null, "end": null, "altitudeMode": null, "tessellate": -1, "extrude": 0, "visibility": -1, "drawOrder": null, "icon": null, "______": "", "id": "1" }, "geometry": { "type": "Point", "coordinates": [ 132.946556, 32.8264, 0.0 ] } },
{ "type": "Feature", "properties": { "Name": "西ノ段", "description": "説明: <br>id: 1", "timestamp": null, "begin": null, "end": null, "altitudeMode": null, "tessellate": -1, "extrude": 0, "visibility": -1, "drawOrder": null, "icon": null, "______": "", "id": "1" }, "geometry": { "type": "Point", "coordinates": [ 132.94358, 32.826116, 0.0 ] } },
{ "type": "Feature", "properties": { "Name": "内沢", "description": "説明: <br>id: 1", "timestamp": null, "begin": null, "end": null, "altitudeMode": null, "tessellate": -1, "extrude": 0, "visibility": -1, "drawOrder": null, "icon": null, "______": "", "id": "1" }, "geometry": { "type": "Point", "coordinates": [ 132.939616, 32.820536, 0.0 ] } },
{ "type": "Feature", "properties": { "Name": "念西寺の上", "description": "説明: <br>id: 1", "timestamp": null, "begin": null, "end": null, "altitudeMode": null, "tessellate": -1, "extrude": 0, "visibility": -1, "drawOrder": null, "icon": null, "______": "", "id": "1" }, "geometry": { "type": "Point", "coordinates": [ 132.940632, 32.817959, 0.0 ] } },
{ "type": "Feature", "properties": { "Name": "大岐津波避難タワー", "description": "説明: <br>id: 2", "timestamp": null, "begin": null, "end": null, "altitudeMode": null, "tessellate": -1, "extrude": 0, "visibility": -1, "drawOrder": null, "icon": null, "______": "", "id": "2" }, "geometry": { "type": "Point", "coordinates": [ 132.94603, 32.818642, 0.0 ] } },
{ "type": "Feature", "properties": { "Name": "すみだ", "description": "説明: <br>id: 1", "timestamp": null, "begin": null, "end": null, "altitudeMode": null, "tessellate": -1, "extrude": 0, "visibility": -1, "drawOrder": null, "icon": null, "______": "", "id": "1" }, "geometry": { "type": "Point", "coordinates": [ 132.940908, 32.815129, 0.0 ] } },
{ "type": "Feature", "properties": { "Name": "白皇神社", "description": "説明: <br>id: 1", "timestamp": null, "begin": null, "end": null, "altitudeMode": null, "tessellate": -1, "extrude": 0, "visibility": -1, "drawOrder": null, "icon": null, "______": "", "id": "1" }, "geometry": { "type": "Point", "coordinates": [ 132.941091, 32.813598, 0.0 ] } },
{ "type": "Feature", "properties": { "Name": "幡陽小学校", "description": "説明: <br>id: 3", "timestamp": null, "begin": null, "end": null, "altitudeMode": null, "tessellate": -1, "extrude": 0, "visibility": -1, "drawOrder": null, "icon": null, "______": "", "id": "3" }, "geometry": { "type": "Point", "coordinates": [ 132.956145, 32.806699, 0.0 ] } },
{ "type": "Feature", "properties": { "Name": "土佐清水市消防署", "description": "説明: <br>id: 4", "timestamp": null, "begin": null, "end": null, "altitudeMode": null, "tessellate": -1, "extrude": 0, "visibility": -1, "drawOrder": null, "icon": null, "______": "", "id": "4" }, "geometry": { "type": "Point", "coordinates": [ 132.956256, 32.802526, 0.0 ] } },
{ "type": "Feature", "properties": { "Name": "障害者支援施設 太陽の家 障害者福祉サービス事業所 たいよう", "description": "説明: <br>id: 1", "timestamp": null, "begin": null, "end": null, "altitudeMode": null, "tessellate": -1, "extrude": 0, "visibility": -1, "drawOrder": null, "icon": null, "______": "", "id": "1" }, "geometry": { "type": "Point", "coordinates": [ 132.959775, 32.802657, 0.0 ] } },
{ "type": "Feature", "properties": { "Name": "特別養護老人ホームしおさい", "description": "説明: <br>id: 1", "timestamp": null, "begin": null, "end": null, "altitudeMode": null, "tessellate": -1, "extrude": 0, "visibility": -1, "drawOrder": null, "icon": null, "______": "", "id": "1" }, "geometry": { "type": "Point", "coordinates": [ 132.961441, 32.803511, 0.0 ] } },
{ "type": "Feature", "properties": { "Name": "上ダバ", "description": "説明: <br>id: 1", "timestamp": null, "begin": null, "end": null, "altitudeMode": null, "tessellate": -1, "extrude": 0, "visibility": -1, "drawOrder": null, "icon": null, "______": "", "id": "1" }, "geometry": { "type": "Point", "coordinates": [ 132.961851, 32.802164, 0.0 ] } },
{ "type": "Feature", "properties": { "Name": "ハナダバ", "description": "説明: <br>id: 1", "timestamp": null, "begin": null, "end": null, "altitudeMode": null, "tessellate": -1, "extrude": 0, "visibility": -1, "drawOrder": null, "icon": null, "______": "", "id": "1" }, "geometry": { "type": "Point", "coordinates": [ 132.963347, 32.798794, 0.0 ] } },
{ "type": "Feature", "properties": { "Name": "金刀比羅宮", "description": "説明: <br>id: 1", "timestamp": null, "begin": null, "end": null, "altitudeMode": null, "tessellate": -1, "extrude": 0, "visibility": -1, "drawOrder": null, "icon": null, "______": "", "id": "1" }, "geometry": { "type": "Point", "coordinates": [ 132.966025, 32.79872, 0.0 ] } },
{ "type": "Feature", "properties": { "Name": "甚太谷口", "description": "説明: <br>id: 1", "timestamp": null, "begin": null, "end": null, "altitudeMode": null, "tessellate": -1, "extrude": 0, "visibility": -1, "drawOrder": null, "icon": null, "______": "", "id": "1" }, "geometry": { "type": "Point", "coordinates": [ 132.963074, 32.796334, 0.0 ] } },
{ "type": "Feature", "properties": { "Name": "旧三鉱生コン跡", "description": "説明: <br>id: 1", "timestamp": null, "begin": null, "end": null, "altitudeMode": null, "tessellate": -1, "extrude": 0, "visibility": -1, "drawOrder": null, "icon": null, "______": "", "id": "1" }, "geometry": { "type": "Point", "coordinates": [ 132.964685, 32.795376, 0.0 ] } },
{ "type": "Feature", "properties": { "Name": "市民体育館", "description": "説明: <br>id: 3", "timestamp": null, "begin": null, "end": null, "altitudeMode": null, "tessellate": -1, "extrude": 0, "visibility": -1, "drawOrder": null, "icon": null, "______": "", "id": "3" }, "geometry": { "type": "Point", "coordinates": [ 132.961197, 32.790728, 0.0 ] } },
{ "type": "Feature", "properties": { "Name": "西松", "description": "説明: <br>id: 1", "timestamp": null, "begin": null, "end": null, "altitudeMode": null, "tessellate": -1, "extrude": 0, "visibility": -1, "drawOrder": null, "icon": null, "______": "", "id": "1" }, "geometry": { "type": "Point", "coordinates": [ 132.959011, 32.796994, 0.0 ] } },
{ "type": "Feature", "properties": { "Name": "橋田宅裏", "description": "説明: <br>id: 1", "timestamp": null, "begin": null, "end": null, "altitudeMode": null, "tessellate": -1, "extrude": 0, "visibility": -1, "drawOrder": null, "icon": null, "______": "", "id": "1" }, "geometry": { "type": "Point", "coordinates": [ 132.955275, 32.799621, 0.0 ] } },
{ "type": "Feature", "properties": { "Name": "以布利ダム管理事務所", "description": "説明: <br>id: 1", "timestamp": null, "begin": null, "end": null, "altitudeMode": null, "tessellate": -1, "extrude": 0, "visibility": -1, "drawOrder": null, "icon": null, "______": "", "id": "1" }, "geometry": { "type": "Point", "coordinates": [ 132.950599, 32.800326, 0.0 ] } },
{ "type": "Feature", "properties": { "Name": "加久見広畑線", "description": "説明: <br>id: 1", "timestamp": null, "begin": null, "end": null, "altitudeMode": null, "tessellate": -1, "extrude": 0, "visibility": -1, "drawOrder": null, "icon": null, "______": "", "id": "1" }, "geometry": { "type": "Point", "coordinates": [ 132.951134, 32.795154, 0.0 ] } },
{ "type": "Feature", "properties": { "Name": "海蔵院", "description": "説明: <br>id: 1", "timestamp": null, "begin": null, "end": null, "altitudeMode": null, "tessellate": -1, "extrude": 0, "visibility": -1, "drawOrder": null, "icon": null, "______": "", "id": "1" }, "geometry": { "type": "Point", "coordinates": [ 132.996263, 32.786315, 0.0 ] } },
{ "type": "Feature", "properties": { "Name": "火び消し", "description": "説明: <br>id: 1", "timestamp": null, "begin": null, "end": null, "altitudeMode": null, "tessellate": -1, "extrude": 0, "visibility": -1, "drawOrder": null, "icon": null, "______": "", "id": "1" }, "geometry": { "type": "Point", "coordinates": [ 132.995349, 32.786234, 0.0 ] } },
{ "type": "Feature", "properties": { "Name": "たかせの裏山", "description": "説明: <br>id: 1", "timestamp": null, "begin": null, "end": null, "altitudeMode": null, "tessellate": -1, "extrude": 0, "visibility": -1, "drawOrder": null, "icon": null, "______": "", "id": "1" }, "geometry": { "type": "Point", "coordinates": [ 132.994708, 32.785776, 0.0 ] } },
{ "type": "Feature", "properties": { "Name": "尾川の上", "description": "説明: <br>id: 1", "timestamp": null, "begin": null, "end": null, "altitudeMode": null, "tessellate": -1, "extrude": 0, "visibility": -1, "drawOrder": null, "icon": null, "______": "", "id": "1" }, "geometry": { "type": "Point", "coordinates": [ 132.993509, 32.783198, 0.0 ] } },
{ "type": "Feature", "properties": { "Name": "弘瀬の上", "description": "説明: <br>id: 1", "timestamp": null, "begin": null, "end": null, "altitudeMode": null, "tessellate": -1, "extrude": 0, "visibility": -1, "drawOrder": null, "icon": null, "______": "", "id": "1" }, "geometry": { "type": "Point", "coordinates": [ 132.994995, 32.783441, 0.0 ] } },
{ "type": "Feature", "properties": { "Name": "まるやま", "description": "説明: <br>id: 1", "timestamp": null, "begin": null, "end": null, "altitudeMode": null, "tessellate": -1, "extrude": 0, "visibility": -1, "drawOrder": null, "icon": null, "______": "", "id": "1" }, "geometry": { "type": "Point", "coordinates": [ 132.996399, 32.784626, 0.0 ] } },
{ "type": "Feature", "properties": { "Name": "上駄馬", "description": "説明: <br>id: 1", "timestamp": null, "begin": null, "end": null, "altitudeMode": null, "tessellate": -1, "extrude": 0, "visibility": -1, "drawOrder": null, "icon": null, "______": "", "id": "1" }, "geometry": { "type": "Point", "coordinates": [ 132.996709, 32.784891, 0.0 ] } },
{ "type": "Feature", "properties": { "Name": "お宮", "description": "説明: <br>id: 1", "timestamp": null, "begin": null, "end": null, "altitudeMode": null, "tessellate": -1, "extrude": 0, "visibility": -1, "drawOrder": null, "icon": null, "______": "", "id": "1" }, "geometry": { "type": "Point", "coordinates": [ 132.99803, 32.785672, 0.0 ] } },
{ "type": "Feature", "properties": { "Name": "旧窪津小学校", "description": "説明: <br>id: 3", "timestamp": null, "begin": null, "end": null, "altitudeMode": null, "tessellate": -1, "extrude": 0, "visibility": -1, "drawOrder": null, "icon": null, "______": "", "id": "3" }, "geometry": { "type": "Point", "coordinates": [ 133.001285, 32.780966, 0.0 ] } },
{ "type": "Feature", "properties": { "Name": "金剛福寺下駐車場", "description": "説明: <br>id: 1", "timestamp": null, "begin": null, "end": null, "altitudeMode": null, "tessellate": -1, "extrude": 0, "visibility": -1, "drawOrder": null, "icon": null, "______": "", "id": "1" }, "geometry": { "type": "Point", "coordinates": [ 133.018058, 32.725119, 0.0 ] } },
{ "type": "Feature", "properties": { "Name": "市営東駐車場", "description": "説明: <br>id: 1", "timestamp": null, "begin": null, "end": null, "altitudeMode": null, "tessellate": -1, "extrude": 0, "visibility": -1, "drawOrder": null, "icon": null, "______": "", "id": "1" }, "geometry": { "type": "Point", "coordinates": [ 133.014027, 32.724782, 0.0 ] } },
{ "type": "Feature", "properties": { "Name": "旧足摺岬保育園", "description": "説明: <br>id: 1", "timestamp": null, "begin": null, "end": null, "altitudeMode": null, "tessellate": -1, "extrude": 0, "visibility": -1, "drawOrder": null, "icon": null, "______": "", "id": "1" }, "geometry": { "type": "Point", "coordinates": [ 133.012702, 32.726407, 0.0 ] } },
{ "type": "Feature", "properties": { "Name": "足摺岬保育園", "description": "説明: <br>id: 1", "timestamp": null, "begin": null, "end": null, "altitudeMode": null, "tessellate": -1, "extrude": 0, "visibility": -1, "drawOrder": null, "icon": null, "______": "", "id": "1" }, "geometry": { "type": "Point", "coordinates": [ 133.011404, 32.725095, 0.0 ] } },
{ "type": "Feature", "properties": { "Name": "足摺岬小学校", "description": "説明: <br>id: 4", "timestamp": null, "begin": null, "end": null, "altitudeMode": null, "tessellate": -1, "extrude": 0, "visibility": -1, "drawOrder": null, "icon": null, "______": "", "id": "4" }, "geometry": { "type": "Point", "coordinates": [ 133.010719, 32.724882, 0.0 ] } },
{ "type": "Feature", "properties": { "Name": "診療所西駐車場", "description": "説明: <br>id: 1", "timestamp": null, "begin": null, "end": null, "altitudeMode": null, "tessellate": -1, "extrude": 0, "visibility": -1, "drawOrder": null, "icon": null, "______": "", "id": "1" }, "geometry": { "type": "Point", "coordinates": [ 133.00853, 32.725921, 0.0 ] } },
{ "type": "Feature", "properties": { "Name": "灘公園", "description": "説明: <br>id: 1", "timestamp": null, "begin": null, "end": null, "altitudeMode": null, "tessellate": -1, "extrude": 0, "visibility": -1, "drawOrder": null, "icon": null, "______": "", "id": "1" }, "geometry": { "type": "Point", "coordinates": [ 133.007608, 32.724705, 0.0 ] } },
{ "type": "Feature", "properties": { "Name": "千崎広場", "description": "説明: <br>id: 1", "timestamp": null, "begin": null, "end": null, "altitudeMode": null, "tessellate": -1, "extrude": 0, "visibility": -1, "drawOrder": null, "icon": null, "______": "", "id": "1" }, "geometry": { "type": "Point", "coordinates": [ 133.004695, 32.723785, 0.0 ] } },
{ "type": "Feature", "properties": { "Name": "山田稲男広場", "description": "説明: <br>id: 1", "timestamp": null, "begin": null, "end": null, "altitudeMode": null, "tessellate": -1, "extrude": 0, "visibility": -1, "drawOrder": null, "icon": null, "______": "", "id": "1" }, "geometry": { "type": "Point", "coordinates": [ 133.004031, 32.725863, 0.0 ] } },
{ "type": "Feature", "properties": { "Name": "堂ヶ森", "description": "説明: <br>id: 1", "timestamp": null, "begin": null, "end": null, "altitudeMode": null, "tessellate": -1, "extrude": 0, "visibility": -1, "drawOrder": null, "icon": null, "______": "", "id": "1" }, "geometry": { "type": "Point", "coordinates": [ 133.002939, 32.726154, 0.0 ] } },
{ "type": "Feature", "properties": { "Name": "仁淀建設駐車場", "description": "説明: <br>id: 1", "timestamp": null, "begin": null, "end": null, "altitudeMode": null, "tessellate": -1, "extrude": 0, "visibility": -1, "drawOrder": null, "icon": null, "______": "", "id": "1" }, "geometry": { "type": "Point", "coordinates": [ 133.004041, 32.728802, 0.0 ] } },
{ "type": "Feature", "properties": { "Name": "山下亨前", "description": "説明: <br>id: 1", "timestamp": null, "begin": null, "end": null, "altitudeMode": null, "tessellate": -1, "extrude": 0, "visibility": -1, "drawOrder": null, "icon": null, "______": "", "id": "1" }, "geometry": { "type": "Point", "coordinates": [ 132.995449, 32.731689, 0.0 ] } },
{ "type": "Feature", "properties": { "Name": "山下商店前", "description": "説明: <br>id: 1", "timestamp": null, "begin": null, "end": null, "altitudeMode": null, "tessellate": -1, "extrude": 0, "visibility": -1, "drawOrder": null, "icon": null, "______": "", "id": "1" }, "geometry": { "type": "Point", "coordinates": [ 132.990195, 32.732157, 0.0 ] } },
{ "type": "Feature", "properties": { "Name": "足摺サニーサイドホテル入口", "description": "説明: <br>id: 1", "timestamp": null, "begin": null, "end": null, "altitudeMode": null, "tessellate": -1, "extrude": 0, "visibility": -1, "drawOrder": null, "icon": null, "______": "", "id": "1" }, "geometry": { "type": "Point", "coordinates": [ 132.990135, 32.731867, 0.0 ] } },
{ "type": "Feature", "properties": { "Name": "若宮神社前", "description": "説明: <br>id: 1", "timestamp": null, "begin": null, "end": null, "altitudeMode": null, "tessellate": -1, "extrude": 0, "visibility": -1, "drawOrder": null, "icon": null, "______": "", "id": "1" }, "geometry": { "type": "Point", "coordinates": [ 132.987865, 32.733847, 0.0 ] } },
{ "type": "Feature", "properties": { "Name": "中川豆腐店前", "description": "説明: <br>id: 1", "timestamp": null, "begin": null, "end": null, "altitudeMode": null, "tessellate": -1, "extrude": 0, "visibility": -1, "drawOrder": null, "icon": null, "______": "", "id": "1" }, "geometry": { "type": "Point", "coordinates": [ 132.985564, 32.735168, 0.0 ] } },
{ "type": "Feature", "properties": { "Name": "吉福邸前駐車場", "description": "説明: <br>id: 1", "timestamp": null, "begin": null, "end": null, "altitudeMode": null, "tessellate": -1, "extrude": 0, "visibility": -1, "drawOrder": null, "icon": null, "______": "", "id": "1" }, "geometry": { "type": "Point", "coordinates": [ 132.983518, 32.732954, 0.0 ] } },
{ "type": "Feature", "properties": { "Name": "田中花恵宅跡", "description": "説明: <br>id: 1", "timestamp": null, "begin": null, "end": null, "altitudeMode": null, "tessellate": -1, "extrude": 0, "visibility": -1, "drawOrder": null, "icon": null, "______": "", "id": "1" }, "geometry": { "type": "Point", "coordinates": [ 132.982217, 32.733192, 0.0 ] } },
{ "type": "Feature", "properties": { "Name": "萩本駐車場", "description": "説明: <br>id: 1", "timestamp": null, "begin": null, "end": null, "altitudeMode": null, "tessellate": -1, "extrude": 0, "visibility": -1, "drawOrder": null, "icon": null, "______": "", "id": "1" }, "geometry": { "type": "Point", "coordinates": [ 132.982905, 32.733383, 0.0 ] } },
{ "type": "Feature", "properties": { "Name": "中村雄二宅跡", "description": "説明: <br>id: 1", "timestamp": null, "begin": null, "end": null, "altitudeMode": null, "tessellate": -1, "extrude": 0, "visibility": -1, "drawOrder": null, "icon": null, "______": "", "id": "1" }, "geometry": { "type": "Point", "coordinates": [ 132.981941, 32.733708, 0.0 ] } },
{ "type": "Feature", "properties": { "Name": "旧松尾保育園庭", "description": "説明: <br>id: 1", "timestamp": null, "begin": null, "end": null, "altitudeMode": null, "tessellate": -1, "extrude": 0, "visibility": -1, "drawOrder": null, "icon": null, "______": "", "id": "1" }, "geometry": { "type": "Point", "coordinates": [ 132.982485, 32.733916, 0.0 ] } },
{ "type": "Feature", "properties": { "Name": "天満宮", "description": "説明: <br>id: 1", "timestamp": null, "begin": null, "end": null, "altitudeMode": null, "tessellate": -1, "extrude": 0, "visibility": -1, "drawOrder": null, "icon": null, "______": "", "id": "1" }, "geometry": { "type": "Point", "coordinates": [ 132.982437, 32.73478, 0.0 ] } },
{ "type": "Feature", "properties": { "Name": "旧松尾小学校", "description": "説明: <br>id: 4", "timestamp": null, "begin": null, "end": null, "altitudeMode": null, "tessellate": -1, "extrude": 0, "visibility": -1, "drawOrder": null, "icon": null, "______": "", "id": "4" }, "geometry": { "type": "Point", "coordinates": [ 132.980033, 32.734316, 0.0 ] } },
{ "type": "Feature", "properties": { "Name": "田中木工所", "description": "説明: <br>id: 1", "timestamp": null, "begin": null, "end": null, "altitudeMode": null, "tessellate": -1, "extrude": 0, "visibility": -1, "drawOrder": null, "icon": null, "______": "", "id": "1" }, "geometry": { "type": "Point", "coordinates": [ 132.980869, 32.733095, 0.0 ] } },
{ "type": "Feature", "properties": { "Name": "寺上", "description": "説明: <br>id: 1", "timestamp": null, "begin": null, "end": null, "altitudeMode": null, "tessellate": -1, "extrude": 0, "visibility": -1, "drawOrder": null, "icon": null, "______": "", "id": "1" }, "geometry": { "type": "Point", "coordinates": [ 132.969583, 32.752506, 0.0 ] } },
{ "type": "Feature", "properties": { "Name": "ウエノコ", "description": "説明: <br>id: 1", "timestamp": null, "begin": null, "end": null, "altitudeMode": null, "tessellate": -1, "extrude": 0, "visibility": -1, "drawOrder": null, "icon": null, "______": "", "id": "1" }, "geometry": { "type": "Point", "coordinates": [ 132.969291, 32.753531, 0.0 ] } },
{ "type": "Feature", "properties": { "Name": "県道四十代", "description": "説明: <br>id: 1", "timestamp": null, "begin": null, "end": null, "altitudeMode": null, "tessellate": -1, "extrude": 0, "visibility": -1, "drawOrder": null, "icon": null, "______": "", "id": "1" }, "geometry": { "type": "Point", "coordinates": [ 132.97065, 32.755073, 0.0 ] } },
{ "type": "Feature", "properties": { "Name": "ヒビケシ山", "description": "説明: <br>id: 1", "timestamp": null, "begin": null, "end": null, "altitudeMode": null, "tessellate": -1, "extrude": 0, "visibility": -1, "drawOrder": null, "icon": null, "______": "", "id": "1" }, "geometry": { "type": "Point", "coordinates": [ 132.967848, 32.754235, 0.0 ] } },
{ "type": "Feature", "properties": { "Name": "中浜小学校", "description": "説明: <br>id: 4", "timestamp": null, "begin": null, "end": null, "altitudeMode": null, "tessellate": -1, "extrude": 0, "visibility": -1, "drawOrder": null, "icon": null, "______": "", "id": "4" }, "geometry": { "type": "Point", "coordinates": [ 132.966057, 32.75604, 0.0 ] } },
{ "type": "Feature", "properties": { "Name": "旧中浜保育園", "description": "説明: <br>id: 1", "timestamp": null, "begin": null, "end": null, "altitudeMode": null, "tessellate": -1, "extrude": 0, "visibility": -1, "drawOrder": null, "icon": null, "______": "", "id": "1" }, "geometry": { "type": "Point", "coordinates": [ 132.966119, 32.755348, 0.0 ] } },
{ "type": "Feature", "properties": { "Name": "ドウショウ坂", "description": "説明: <br>id: 1", "timestamp": null, "begin": null, "end": null, "altitudeMode": null, "tessellate": -1, "extrude": 0, "visibility": -1, "drawOrder": null, "icon": null, "______": "", "id": "1" }, "geometry": { "type": "Point", "coordinates": [ 132.966949, 32.755055, 0.0 ] } },
{ "type": "Feature", "properties": { "Name": "長崎(1)", "description": "説明: <br>id: 1", "timestamp": null, "begin": null, "end": null, "altitudeMode": null, "tessellate": -1, "extrude": 0, "visibility": -1, "drawOrder": null, "icon": null, "______": "", "id": "1" }, "geometry": { "type": "Point", "coordinates": [ 132.965604, 32.753965, 0.0 ] } },
{ "type": "Feature", "properties": { "Name": "長崎(2)", "description": "説明: <br>id: 1", "timestamp": null, "begin": null, "end": null, "altitudeMode": null, "tessellate": -1, "extrude": 0, "visibility": -1, "drawOrder": null, "icon": null, "______": "", "id": "1" }, "geometry": { "type": "Point", "coordinates": [ 132.965527, 32.752429, 0.0 ] } },
{ "type": "Feature", "properties": { "Name": "芝の内駄場", "description": "説明: <br>id: 1", "timestamp": null, "begin": null, "end": null, "altitudeMode": null, "tessellate": -1, "extrude": 0, "visibility": -1, "drawOrder": null, "icon": null, "______": "", "id": "1" }, "geometry": { "type": "Point", "coordinates": [ 132.966645, 32.757042, 0.0 ] } },
{ "type": "Feature", "properties": { "Name": "黒石", "description": "説明: <br>id: 1", "timestamp": null, "begin": null, "end": null, "altitudeMode": null, "tessellate": -1, "extrude": 0, "visibility": -1, "drawOrder": null, "icon": null, "______": "", "id": "1" }, "geometry": { "type": "Point", "coordinates": [ 132.966425, 32.758904, 0.0 ] } },
{ "type": "Feature", "properties": { "Name": "岡駄場", "description": "説明: <br>id: 1", "timestamp": null, "begin": null, "end": null, "altitudeMode": null, "tessellate": -1, "extrude": 0, "visibility": -1, "drawOrder": null, "icon": null, "______": "", "id": "1" }, "geometry": { "type": "Point", "coordinates": [ 132.964272, 32.760967, 0.0 ] } },
{ "type": "Feature", "properties": { "Name": "山崎", "description": "説明: <br>id: 1", "timestamp": null, "begin": null, "end": null, "altitudeMode": null, "tessellate": -1, "extrude": 0, "visibility": -1, "drawOrder": null, "icon": null, "______": "", "id": "1" }, "geometry": { "type": "Point", "coordinates": [ 132.963775, 32.761889, 0.0 ] } },
{ "type": "Feature", "properties": { "Name": "西の駄場", "description": "説明: <br>id: 1", "timestamp": null, "begin": null, "end": null, "altitudeMode": null, "tessellate": -1, "extrude": 0, "visibility": -1, "drawOrder": null, "icon": null, "______": "", "id": "1" }, "geometry": { "type": "Point", "coordinates": [ 132.960823, 32.761878, 0.0 ] } },
{ "type": "Feature", "properties": { "Name": "トウバイ", "description": "説明: <br>id: 1", "timestamp": null, "begin": null, "end": null, "altitudeMode": null, "tessellate": -1, "extrude": 0, "visibility": -1, "drawOrder": null, "icon": null, "______": "", "id": "1" }, "geometry": { "type": "Point", "coordinates": [ 132.959958, 32.760142, 0.0 ] } },
{ "type": "Feature", "properties": { "Name": "小森", "description": "説明: <br>id: 1", "timestamp": null, "begin": null, "end": null, "altitudeMode": null, "tessellate": -1, "extrude": 0, "visibility": -1, "drawOrder": null, "icon": null, "______": "", "id": "1" }, "geometry": { "type": "Point", "coordinates": [ 132.96019, 32.759248, 0.0 ] } },
{ "type": "Feature", "properties": { "Name": "宮本建設裏山", "description": "説明: <br>id: 1", "timestamp": null, "begin": null, "end": null, "altitudeMode": null, "tessellate": -1, "extrude": 0, "visibility": -1, "drawOrder": null, "icon": null, "______": "", "id": "1" }, "geometry": { "type": "Point", "coordinates": [ 132.947066, 32.787079, 0.0 ] } },
{ "type": "Feature", "properties": { "Name": "清水高校裏山", "description": "説明: <br>id: 1", "timestamp": null, "begin": null, "end": null, "altitudeMode": null, "tessellate": -1, "extrude": 0, "visibility": -1, "drawOrder": null, "icon": null, "______": "", "id": "1" }, "geometry": { "type": "Point", "coordinates": [ 132.944712, 32.785374, 0.0 ] } },
{ "type": "Feature", "properties": { "Name": "潮江山", "description": "説明: <br>id: 1", "timestamp": null, "begin": null, "end": null, "altitudeMode": null, "tessellate": -1, "extrude": 0, "visibility": -1, "drawOrder": null, "icon": null, "______": "", "id": "1" }, "geometry": { "type": "Point", "coordinates": [ 132.942272, 32.786114, 0.0 ] } },
{ "type": "Feature", "properties": { "Name": "馬路", "description": "説明: <br>id: 1", "timestamp": null, "begin": null, "end": null, "altitudeMode": null, "tessellate": -1, "extrude": 0, "visibility": -1, "drawOrder": null, "icon": null, "______": "", "id": "1" }, "geometry": { "type": "Point", "coordinates": [ 132.945455, 32.791391, 0.0 ] } },
{ "type": "Feature", "properties": { "Name": "城山", "description": "説明: <br>id: 1", "timestamp": null, "begin": null, "end": null, "altitudeMode": null, "tessellate": -1, "extrude": 0, "visibility": -1, "drawOrder": null, "icon": null, "______": "", "id": "1" }, "geometry": { "type": "Point", "coordinates": [ 132.944176, 32.790412, 0.0 ] } },
{ "type": "Feature", "properties": { "Name": "加久見防災倉庫", "description": "説明: <br>id: 1", "timestamp": null, "begin": null, "end": null, "altitudeMode": null, "tessellate": -1, "extrude": 0, "visibility": -1, "drawOrder": null, "icon": null, "______": "", "id": "1" }, "geometry": { "type": "Point", "coordinates": [ 132.943813, 32.793731, 0.0 ] } },
{ "type": "Feature", "properties": { "Name": "ミヤノコ", "description": "説明: <br>id: 1", "timestamp": null, "begin": null, "end": null, "altitudeMode": null, "tessellate": -1, "extrude": 0, "visibility": -1, "drawOrder": null, "icon": null, "______": "", "id": "1" }, "geometry": { "type": "Point", "coordinates": [ 132.938773, 32.792192, 0.0 ] } },
{ "type": "Feature", "properties": { "Name": "宝山", "description": "説明: <br>id: 1", "timestamp": null, "begin": null, "end": null, "altitudeMode": null, "tessellate": -1, "extrude": 0, "visibility": -1, "drawOrder": null, "icon": null, "______": "", "id": "1" }, "geometry": { "type": "Point", "coordinates": [ 132.938834, 32.789401, 0.0 ] } },
{ "type": "Feature", "properties": { "Name": "水槽タンク", "description": "説明: <br>id: 1", "timestamp": null, "begin": null, "end": null, "altitudeMode": null, "tessellate": -1, "extrude": 0, "visibility": -1, "drawOrder": null, "icon": null, "______": "", "id": "1" }, "geometry": { "type": "Point", "coordinates": [ 132.936504, 32.794602, 0.0 ] } },
{ "type": "Feature", "properties": { "Name": "55人組", "description": "説明: <br>id: 1", "timestamp": null, "begin": null, "end": null, "altitudeMode": null, "tessellate": -1, "extrude": 0, "visibility": -1, "drawOrder": null, "icon": null, "______": "", "id": "1" }, "geometry": { "type": "Point", "coordinates": [ 132.932824, 32.787142, 0.0 ] } },
{ "type": "Feature", "properties": { "Name": "中の駄場", "description": "説明: <br>id: 1", "timestamp": null, "begin": null, "end": null, "altitudeMode": null, "tessellate": -1, "extrude": 0, "visibility": -1, "drawOrder": null, "icon": null, "______": "", "id": "1" }, "geometry": { "type": "Point", "coordinates": [ 132.929843, 32.785119, 0.0 ] } },
{ "type": "Feature", "properties": { "Name": "旧養老小学校体育館", "description": "説明: <br>id: 3", "timestamp": null, "begin": null, "end": null, "altitudeMode": null, "tessellate": -1, "extrude": 0, "visibility": -1, "drawOrder": null, "icon": null, "______": "", "id": "3" }, "geometry": { "type": "Point", "coordinates": [ 132.925717, 32.785377, 0.0 ] } },
{ "type": "Feature", "properties": { "Name": "旧養老小学校・あんきな家", "description": "説明: <br>id: 1", "timestamp": null, "begin": null, "end": null, "altitudeMode": null, "tessellate": -1, "extrude": 0, "visibility": -1, "drawOrder": null, "icon": null, "______": "", "id": "1" }, "geometry": { "type": "Point", "coordinates": [ 132.925566, 32.785268, 0.0 ] } },
{ "type": "Feature", "properties": { "Name": "木のくじら", "description": "説明: <br>id: 1", "timestamp": null, "begin": null, "end": null, "altitudeMode": null, "tessellate": -1, "extrude": 0, "visibility": -1, "drawOrder": null, "icon": null, "______": "", "id": "1" }, "geometry": { "type": "Point", "coordinates": [ 132.921402, 32.781951, 0.0 ] } },
{ "type": "Feature", "properties": { "Name": "天崎神社の上", "description": "説明: <br>id: 1", "timestamp": null, "begin": null, "end": null, "altitudeMode": null, "tessellate": -1, "extrude": 0, "visibility": -1, "drawOrder": null, "icon": null, "______": "", "id": "1" }, "geometry": { "type": "Point", "coordinates": [ 132.921505, 32.785274, 0.0 ] } },
{ "type": "Feature", "properties": { "Name": "山下宅庭", "description": "説明: <br>id: 1", "timestamp": null, "begin": null, "end": null, "altitudeMode": null, "tessellate": -1, "extrude": 0, "visibility": -1, "drawOrder": null, "icon": null, "______": "", "id": "1" }, "geometry": { "type": "Point", "coordinates": [ 132.921622, 32.785108, 0.0 ] } },
{ "type": "Feature", "properties": { "Name": "木下", "description": "説明: <br>id: 1", "timestamp": null, "begin": null, "end": null, "altitudeMode": null, "tessellate": -1, "extrude": 0, "visibility": -1, "drawOrder": null, "icon": null, "______": "", "id": "1" }, "geometry": { "type": "Point", "coordinates": [ 132.920837, 32.786834, 0.0 ] } },
{ "type": "Feature", "properties": { "Name": "墓地", "description": "説明: <br>id: 1", "timestamp": null, "begin": null, "end": null, "altitudeMode": null, "tessellate": -1, "extrude": 0, "visibility": -1, "drawOrder": null, "icon": null, "______": "", "id": "1" }, "geometry": { "type": "Point", "coordinates": [ 132.919149, 32.787494, 0.0 ] } },
{ "type": "Feature", "properties": { "Name": "榎", "description": "説明: <br>id: 1", "timestamp": null, "begin": null, "end": null, "altitudeMode": null, "tessellate": -1, "extrude": 0, "visibility": -1, "drawOrder": null, "icon": null, "______": "", "id": "1" }, "geometry": { "type": "Point", "coordinates": [ 132.91854, 32.787204, 0.0 ] } },
{ "type": "Feature", "properties": { "Name": "西村宅の上", "description": "説明: <br>id: 1", "timestamp": null, "begin": null, "end": null, "altitudeMode": null, "tessellate": -1, "extrude": 0, "visibility": -1, "drawOrder": null, "icon": null, "______": "", "id": "1" }, "geometry": { "type": "Point", "coordinates": [ 132.912139, 32.789146, 0.0 ] } },
{ "type": "Feature", "properties": { "Name": "西光寺", "description": "説明: <br>id: 1", "timestamp": null, "begin": null, "end": null, "altitudeMode": null, "tessellate": -1, "extrude": 0, "visibility": -1, "drawOrder": null, "icon": null, "______": "", "id": "1" }, "geometry": { "type": "Point", "coordinates": [ 132.894681, 32.802621, 0.0 ] } },
{ "type": "Feature", "properties": { "Name": "天満宮", "description": "説明: <br>id: 1", "timestamp": null, "begin": null, "end": null, "altitudeMode": null, "tessellate": -1, "extrude": 0, "visibility": -1, "drawOrder": null, "icon": null, "______": "", "id": "1" }, "geometry": { "type": "Point", "coordinates": [ 132.899581, 32.80091, 0.0 ] } },
{ "type": "Feature", "properties": { "Name": "川島さん宅空地", "description": "説明: <br>id: 1", "timestamp": null, "begin": null, "end": null, "altitudeMode": null, "tessellate": -1, "extrude": 0, "visibility": -1, "drawOrder": null, "icon": null, "______": "", "id": "1" }, "geometry": { "type": "Point", "coordinates": [ 132.894434, 32.801163, 0.0 ] } },
{ "type": "Feature", "properties": { "Name": "片粕集会所上", "description": "説明: <br>id: 1", "timestamp": null, "begin": null, "end": null, "altitudeMode": null, "tessellate": -1, "extrude": 0, "visibility": -1, "drawOrder": null, "icon": null, "______": "", "id": "1" }, "geometry": { "type": "Point", "coordinates": [ 132.8349, 32.777106, 0.0 ] } },
{ "type": "Feature", "properties": { "Name": "垣の内谷川堰堤", "description": "説明: <br>id: 1", "timestamp": null, "begin": null, "end": null, "altitudeMode": null, "tessellate": -1, "extrude": 0, "visibility": -1, "drawOrder": null, "icon": null, "______": "", "id": "1" }, "geometry": { "type": "Point", "coordinates": [ 132.83111, 32.77609, 0.0 ] } },
{ "type": "Feature", "properties": { "Name": "裏山東", "description": "説明: <br>id: 1", "timestamp": null, "begin": null, "end": null, "altitudeMode": null, "tessellate": -1, "extrude": 0, "visibility": -1, "drawOrder": null, "icon": null, "______": "", "id": "1" }, "geometry": { "type": "Point", "coordinates": [ 132.828715, 32.768171, 0.0 ] } },
{ "type": "Feature", "properties": { "Name": "裏山西", "description": "説明: <br>id: 1", "timestamp": null, "begin": null, "end": null, "altitudeMode": null, "tessellate": -1, "extrude": 0, "visibility": -1, "drawOrder": null, "icon": null, "______": "", "id": "1" }, "geometry": { "type": "Point", "coordinates": [ 132.827152, 32.768193, 0.0 ] } },
{ "type": "Feature", "properties": { "Name": "港山の上", "description": "説明: <br>id: 1", "timestamp": null, "begin": null, "end": null, "altitudeMode": null, "tessellate": -1, "extrude": 0, "visibility": -1, "drawOrder": null, "icon": null, "______": "", "id": "1" }, "geometry": { "type": "Point", "coordinates": [ 132.816871, 32.764151, 0.0 ] } },
{ "type": "Feature", "properties": { "Name": "那須裏山", "description": "説明: <br>id: 1", "timestamp": null, "begin": null, "end": null, "altitudeMode": null, "tessellate": -1, "extrude": 0, "visibility": -1, "drawOrder": null, "icon": null, "______": "", "id": "1" }, "geometry": { "type": "Point", "coordinates": [ 132.814988, 32.763843, 0.0 ] } },
{ "type": "Feature", "properties": { "Name": "中村屋敷", "description": "説明: <br>id: 1", "timestamp": null, "begin": null, "end": null, "altitudeMode": null, "tessellate": -1, "extrude": 0, "visibility": -1, "drawOrder": null, "icon": null, "______": "", "id": "1" }, "geometry": { "type": "Point", "coordinates": [ 132.813722, 32.764479, 0.0 ] } },
{ "type": "Feature", "properties": { "Name": "梶ヶ谷", "description": "説明: <br>id: 1", "timestamp": null, "begin": null, "end": null, "altitudeMode": null, "tessellate": -1, "extrude": 0, "visibility": -1, "drawOrder": null, "icon": null, "______": "", "id": "1" }, "geometry": { "type": "Point", "coordinates": [ 132.811873, 32.766505, 0.0 ] } },
{ "type": "Feature", "properties": { "Name": "西平山", "description": "説明: <br>id: 1", "timestamp": null, "begin": null, "end": null, "altitudeMode": null, "tessellate": -1, "extrude": 0, "visibility": -1, "drawOrder": null, "icon": null, "______": "", "id": "1" }, "geometry": { "type": "Point", "coordinates": [ 132.809354, 32.768518, 0.0 ] } },
{ "type": "Feature", "properties": { "Name": "ボウの山②", "description": "説明: <br>id: 1", "timestamp": null, "begin": null, "end": null, "altitudeMode": null, "tessellate": -1, "extrude": 0, "visibility": -1, "drawOrder": null, "icon": null, "______": "", "id": "1" }, "geometry": { "type": "Point", "coordinates": [ 132.809917, 32.766541, 0.0 ] } },
{ "type": "Feature", "properties": { "Name": "ボウの山中", "description": "説明: <br>id: 1", "timestamp": null, "begin": null, "end": null, "altitudeMode": null, "tessellate": -1, "extrude": 0, "visibility": -1, "drawOrder": null, "icon": null, "______": "", "id": "1" }, "geometry": { "type": "Point", "coordinates": [ 132.810227, 32.765255, 0.0 ] } },
{ "type": "Feature", "properties": { "Name": "ボウの山①", "description": "説明: <br>id: 1", "timestamp": null, "begin": null, "end": null, "altitudeMode": null, "tessellate": -1, "extrude": 0, "visibility": -1, "drawOrder": null, "icon": null, "______": "", "id": "1" }, "geometry": { "type": "Point", "coordinates": [ 132.809542, 32.764364, 0.0 ] } },
{ "type": "Feature", "properties": { "Name": "タビラ", "description": "説明: <br>id: 1", "timestamp": null, "begin": null, "end": null, "altitudeMode": null, "tessellate": -1, "extrude": 0, "visibility": -1, "drawOrder": null, "icon": null, "______": "", "id": "1" }, "geometry": { "type": "Point", "coordinates": [ 132.809239, 32.761355, 0.0 ] } },
{ "type": "Feature", "properties": { "Name": "一本松", "description": "説明: <br>id: 1", "timestamp": null, "begin": null, "end": null, "altitudeMode": null, "tessellate": -1, "extrude": 0, "visibility": -1, "drawOrder": null, "icon": null, "______": "", "id": "1" }, "geometry": { "type": "Point", "coordinates": [ 132.812932, 32.760312, 0.0 ] } },
{ "type": "Feature", "properties": { "Name": "恵比寿神社", "description": "説明: <br>id: 1", "timestamp": null, "begin": null, "end": null, "altitudeMode": null, "tessellate": -1, "extrude": 0, "visibility": -1, "drawOrder": null, "icon": null, "______": "", "id": "1" }, "geometry": { "type": "Point", "coordinates": [ 132.813574, 32.759784, 0.0 ] } },
{ "type": "Feature", "properties": { "Name": "お墓東", "description": "説明: <br>id: 1", "timestamp": null, "begin": null, "end": null, "altitudeMode": null, "tessellate": -1, "extrude": 0, "visibility": -1, "drawOrder": null, "icon": null, "______": "", "id": "1" }, "geometry": { "type": "Point", "coordinates": [ 132.813473, 32.758511, 0.0 ] } },
{ "type": "Feature", "properties": { "Name": "宮本台枝住宅", "description": "説明: <br>id: 1", "timestamp": null, "begin": null, "end": null, "altitudeMode": null, "tessellate": -1, "extrude": 0, "visibility": -1, "drawOrder": null, "icon": null, "______": "", "id": "1" }, "geometry": { "type": "Point", "coordinates": [ 132.804946, 32.753411, 0.0 ] } },
{ "type": "Feature", "properties": { "Name": "宮本台枝宅", "description": "説明: <br>id: 1", "timestamp": null, "begin": null, "end": null, "altitudeMode": null, "tessellate": -1, "extrude": 0, "visibility": -1, "drawOrder": null, "icon": null, "______": "", "id": "1" }, "geometry": { "type": "Point", "coordinates": [ 132.804005, 32.753952, 0.0 ] } },
{ "type": "Feature", "properties": { "Name": "新谷賢二宅裏山", "description": "説明: <br>id: 1", "timestamp": null, "begin": null, "end": null, "altitudeMode": null, "tessellate": -1, "extrude": 0, "visibility": -1, "drawOrder": null, "icon": null, "______": "", "id": "1" }, "geometry": { "type": "Point", "coordinates": [ 132.800691, 32.752936, 0.0 ] } },
{ "type": "Feature", "properties": { "Name": "道路のハナ", "description": "説明: <br>id: 1", "timestamp": null, "begin": null, "end": null, "altitudeMode": null, "tessellate": -1, "extrude": 0, "visibility": -1, "drawOrder": null, "icon": null, "______": "", "id": "1" }, "geometry": { "type": "Point", "coordinates": [ 132.802512, 32.752544, 0.0 ] } },
{ "type": "Feature", "properties": { "Name": "山下君子宅裏山（アサビラキ）", "description": "説明: <br>id: 1", "timestamp": null, "begin": null, "end": null, "altitudeMode": null, "tessellate": -1, "extrude": 0, "visibility": -1, "drawOrder": null, "icon": null, "______": "", "id": "1" }, "geometry": { "type": "Point", "coordinates": [ 132.802507, 32.751836, 0.0 ] } },
{ "type": "Feature", "properties": { "Name": "観音様", "description": "説明: <br>id: 1", "timestamp": null, "begin": null, "end": null, "altitudeMode": null, "tessellate": -1, "extrude": 0, "visibility": -1, "drawOrder": null, "icon": null, "______": "", "id": "1" }, "geometry": { "type": "Point", "coordinates": [ 132.801763, 32.748778, 0.0 ] } }
]
}
