{
    "type": "FeatureCollection",
    "name": "facilities",
    "crs": { "type": "name", "properties": { "name": "urn:ogc:def:crs:OGC:1.3:CRS84" } },
    "features": [
        { "type": "Feature", "properties": { 
            "_name":"竜串ビジターセンター",
            "_attr":"wc",
            "_image":["vc_uminowa","vc_wc","vc_multi"],
            "_note" :["外観","トイレ入り口","多目的トイレ"],
            "_explanation":"多目的トイレあり",
            "_offset":10,
            "_attribution":"facilities"
        },
        "geometry":{"type":"Point","coordinates":[132.8635,32.79104751216054]}},

        { "type": "Feature", "properties": { 
            "_name":"足摺海洋館SATOUMI",
            "_attr":"wc",
            "_image":[""],
            "_explanation":"",
            "_offset":10,
            "_attribution":"facilities"
        },
        "geometry":{"type":"Point","coordinates":[132.8621120448952,32.79130130878748]}},

        { "type": "Feature", "properties": { 
            "_name":"桜浜 海水浴場",
            "_attr":"P wc",
            "_image":["sakurahamaP","sakurahamaWC","sakurahamaWC2"],
            "_note" :["駐車場","トイレ外観","多目的トイレ"],
            "_explanation":"多目的トイレあり",
            "_offset":10,
            "_attribution":"facilities"
        },
        "geometry":{"type":"Point","coordinates":[132.86476635960753,32.78980917762439]}},
        
        { "type": "Feature", "properties": { 
            "_name":"市営竜串東",
            "_attr":"P wc",
            "_image":["tatsukushiEP0","tatsukushiEP","umi_gallery","umi_gallery1","umi_gallery2"],
            "_note" :["国道入り口","駐車場全景","トイレは海ギャラの中","トイレ入り口","多目的トイレ"],
            "_explanation":"多目的トイレあり",
            "_offset":10,
            "_attribution":"facilities"
        },
        "geometry":{"type":"Point","coordinates":[132.86630809348028,32.78892803146175]}},
        
        { "type": "Feature", "properties": { 
            "_name":"三崎浦ニコニコ公園",
            "_attr":"P wc",
            "_image":["nikonikoP","nikonikoWC","nikonikoWC2"],
            "_note" :["駐車場","トイレ外観","多目的トイレ"],
            "_explanation":"多目的トイレあり",
            "_offset":10,
            "_attribution":"facilities"
        },
        "geometry":{"type":"Point","coordinates":[132.8794831039568,32.790008514891326]}},
        
        { "type": "Feature", "properties": { 
            "_name":"道の駅めじかの里",
            "_attr":"P wc",
            "_image":["michi-no-ekiP","michi-no-ekiWC","michi-no-ekiWC2"],
            "_note" :["駐車場","トイレ外観","多目的トイレ"],
            "_explanation":"多目的トイレあり",
            "_offset":10,
            "_attribution":"facilities"
        },
        "geometry":{"type":"Point","coordinates":[132.8833261731643,32.79377405267808]}},
        
        { "type": "Feature", "properties": { 
            "_name":"鹿島公園",
            "_attr":"P wc",
            "_image":["kashimaP","kashimaWC"],
            "_note" :["駐車場","トイレ外観"],
            "_explanation":"多目的トイレあり",
            "_offset":10,
            "_attribution":"facilities"
        },
        "geometry":{"type":"Point","coordinates":[132.96082270208444,32.77750440893921]}},
        
        { "type": "Feature", "properties": { 
            "_name":"足摺岬市営第一",
            "_attr":"P wc",
            "_image":[""],
            "_explanation":"",
            "_offset":10,
            "_attribution":"facilities"

        },
        "geometry":{"type":"Point","coordinates":[133.01020002447788,32.7260433245378]}},
        
        { "type": "Feature", "properties": { 
            "_name":"足摺岬駐車場",
            "_attr":"P wc",
            "_image":["ashizuriCapeP1","ashizuriCapeP2","ashizuriCapeP3","ashizuriCapeWC1","ashizuriCapeWC2"],
            "_note" :["駐車場東向き","バス用","乗用車用","トイレ外観","トイレ外観"],
            "_explanation":"多目的トイレあり",
            "_offset":10,
            "_attribution":"facilities"
        },
        "geometry":{"type":"Point","coordinates":[133.01895690100994,32.72519761484701]}},
        
        { "type": "Feature", "properties": { 
            "_name":"竜串ウェストパーク",
            "_attr":"P wc",
            "_image":["west_parkP","west_parkWC"],
            "_note" :["駐車場","トイレ外観"],
            "_explanation":"多目的トイレあり",
            "_offset":10,
            "_attribution":"facilities"
        },
        "geometry":{"type":"Point","coordinates":[132.86023986349392,32.7904301523321]}},
        
        { "type": "Feature", "properties": { 
            "_name":"爪白キャンプ場",
            "_attr":"P",
            "_image":["tsumajiroC","tsumajiroC2"],
            "_note" :["駐車場入り口","５０台以上"],
            "_explanation":"",
            "_offset":10,
            "_attribution":"facilities"
        },
        "geometry":{"type":"Point","coordinates":[132.8575823303436,32.788241080258636]}},
        
        { "type": "Feature", "properties": { 
            "_name":"爪白キャンプ場トイレ",
            "_attr":"wc",
            "_image":["camp_field","camp_fieldWC"],
            "_note" :["トイレ外観","トイレ入り口"],
            "_explanation":"多目的トイレあり",
            "_offset":10,
            "_attribution":"facilities"
        },
        "geometry":{"type":"Point","coordinates":[132.85833764115526,32.788241080258636]}},
        
        { "type": "Feature", "properties": { 
            "_name":"足摺海洋館SATOUMI",
            "_attr":"P",
            "_image":["satoumiP"],
            "_note" :["駐車場"],
            "_explanation":"",
            "_offset":10,
            "_attribution":"facilities"
        },
        "geometry":{"type":"Point","coordinates":[132.862954259017,32.791394936250406]}},
        
        { "type": "Feature", "properties": { 
            "_name":"県営竜串",
            "_attr":"P",
            "_image":["tatsukushiP","tatsukushiP2"],
            "_note" :["駐車場","駐車場"],
            "_explanation":"",
            "_offset":10,
            "_attribution":"facilities"
        },
        "geometry":{"type":"Point","coordinates":[132.8631527424841,32.79194044028264]}},
        
        { "type": "Feature", "properties": { 
            "_name":"ジョン万資料館",
            "_attr":"P wc",
            "_image":["john_mung"],
            "_note" :["３０台以上"],
            "_explanation":"",
            "_offset":10,
            "_attribution":"facilities"
        },
        "geometry":{"type":"Point","coordinates":[132.9320318708051,32.78214120109914]}},

        { "type": "Feature", "properties": { 
            "_name":"窪津漁港ふれあい公園",
            "_attr":"P wc",
            "_image":["kubotsuWC","kubotsuWC2"],
            "_note" :["窪津漁港ふれあい公園　１５台程度"],
            "_explanation":"",
            "_offset":10,
            "_attribution":"facilities"
        },
        "geometry":{"type":"Point","coordinates":[132.999672, 32.787417]}},

        { "type": "Feature", "properties": { 
            "_name":"窪津漁港",
            "_attr":"P wc",
            "_image":["kubotsuFP"],
            "_note" :["窪津漁港　１０台"],
            "_explanation":"",
            "_offset":10,
            "_attribution":"facilities"
        },
        "geometry":{"type":"Point","coordinates":[132.997156, 32.786797]}},

        { "type": "Feature", "properties": { 
            "_name":"大芝山展望所",
            "_attr":"P",
            "_image":["skylineP","skylineP2"],
            "_explanation":"",
            "_offset":10,
            "_attribution":"facilities"
        },
        "geometry":{"type":"Point","coordinates":[132.99022078514102, 32.76076310646737]}},
        
        { "type": "Feature", "properties": { 
            "_name":"叶崎展望台",
            "_attr":"P",
            "_image":["kanaezakiObs"],
            "_note" :["国道３２１号　東向き"],
            "_explanation":"",
            "_offset":10,
            "_attribution":"facilities"
        },
        "geometry":{"type":"Point","coordinates":[132.79882371425632, 32.74924404069396]}},

        { "type": "Feature", "properties": { 
            "_name":"足摺岬東駐車場",
            "_attr":"P",
            "_image":["ashizuriEastP1","ashizuriEastP2","ashizuriEastP3"],
            "_note" :["北向き","南向き","入り口"],
            "_explanation":"",
            "_offset":10,
            "_attribution":"facilities"
        },
        "geometry":{"type":"Point","coordinates":[133.02008557399859,32.73074452216842]}},
        
        { "type": "Feature", "properties": { 
            "_name":"臼碆",
            "_attr":"P wc",
            "_image":["usubaeP","usubaeWC"],
            "_note" :["駐車場","トイレ外観"],
            "_explanation":"多目的トイレ有",
            "_offset":10,
            "_attribution":"facilities"
        },
        "geometry":{"type":"Point","coordinates":[132.96868371904569,32.73206938854591]}},
        
        { "type": "Feature", "properties": { 
            "_name":"松尾県道沿い",
            "_attr":"P",
            "_image":["matsuoP1","matsuoP2"],
            "_note" :["東向き","西向き"],
            "_explanation":"",
            "_offset":10,
            "_attribution":"facilities"
        },
        "geometry":{"type":"Point","coordinates":[132.98312044124035,32.734334241986154]}},
        
        { "type": "Feature", "properties": { 
            "_name":"松尾漁港",
            "_attr":"P wc",
            "_image":[""],
            "_explanation":"",
            "_offset":10,
            "_attribution":"facilities"
        },
        "geometry":{"type":"Point","coordinates":[132.98510420263483,32.73360114104863]}},
        
        { "type": "Feature", "properties": { 
            "_name":"市野瀬水車",
            "_attr":"P wc",
            "_image":["ichinoseP1","ichinoseWC1","ichinoseWC2"],
            "_note" :["駐車場南向き","トイレ外観","多目的入り口"],
            "_explanation":"多目的トイレあり",
            "_offset":10,
            "_attribution":"facilities"
        },
       "geometry":{"type":"Point","coordinates":[132.93562602761088,32.903182080452694]}},
        
        { "type": "Feature", "properties": { 
            "_name":"大岐の浜展望駐車場",
            "_attr":"P",
            "_image":["okiObsP1"],
            "_note" :["７台"],
            "_explanation":"",
            "_offset":10
        },
        "geometry":{"type":"Point","coordinates":[132.951236,32.826042]}},
        
        { "type": "Feature", "properties": { 
            "_name":"大岐浜中央",
            "_attr":"P",
            "_image":["okiCpark"],
            "_note" :["６４台"],
            "_explanation":"",
            "_offset":10
        },
        "geometry":{"type":"Point","coordinates":[132.947556,32.820184]}},

        { "type": "Feature", "properties": { 
            "_name":"大岐浜中央",
            "_attr":"wc",
            "_image":["okiCWC"],
            "_explanation":"多目的トイレあり",
            "_offset":10
        },
        "geometry":{"type":"Point","coordinates":[132.949166,32.820303]}},

        { "type": "Feature", "properties": { 
            "_name":"大岐浜東側",
            "_attr":"wc",
            "_image":["okiEastWC1","okiEastWC2","okiEastWC3"],
            "_explanation":"多目的トイレあり",
            "_offset":10
        },
        "geometry":{"type":"Point","coordinates":[132.950210,32.82479280439525]}},

        { "type": "Feature", "properties": { 
            "_name":"唐人駄場",
            "_attr":"P wc",
            "_image":["tojinP","tojinWC"],
            "_note" :["駐車場","トイレ外観"],
            "_explanation":"多目的トイレ有",
            "_offset":10,
            "_attribution":"facilities"
        },
        "geometry":{"type":"Point","coordinates":[132.98312734134902,32.743790110579184]}},
        
        { "type": "Feature", "properties": { 
            "_name":"布漁港",
            "_attr":"wc",
            "_image":["nuno"],
            "_explanation":"多目的トイレあり",
            "_offset":10,
            "_attribution":"facilities"
        },
        "geometry":{"type":"Point","coordinates":[132.98485314793655,32.86789538589809]}},
                
        { "type": "Feature", "properties": { 
            "_name":"下ノ加江",
            "_attr":"P wc",
            "_image":["shimonokae1","shimonokae2"],
            "_explanation":"旧下ノ加江中学校横　多目的トイレあり",
            "_offset":10,
            "_attribution":"facilities"
        },
        "geometry":{"type":"Point","coordinates":[132.952191,32.862119]}},
        
        { "type": "Feature", "properties": { 
            "_name":"狩津",
            "_attr":"P",
            "_image":["karitsuP","karitsu"],
            "_note" :["駐車スペース入り口","狩津標石"],
            "_explanation":"",
            "_offset":10,
            "_attribution":"facilities"
        },
        "geometry":{"type":"Point","coordinates":[133.0021448128173,32.88016490736162]}},
        
        { "type": "Feature", "properties": { 
            "_name":"叶崎駐車場",
            "_attr":"P",
            "_image":["kanaezaki_P1","kanaezaki_P2"],
            "_explanation":"",
            "_offset":10,
            "_attribution":"facilities"
        },
        "geometry":{"type":"Point","coordinates":[132.802584,32.749724]}},  
        
        { "type": "Feature", "properties": { 
            "_name":"叶崎トイレ",
            "_attr":"wc",
            "_image":["kanaezakiWC1","kanaezakiWC2"],
            "_note" :["トイレ外観　上から","トイレ外観　下から"],
            "_explanation":"",
            "_offset":10,
            "_attribution":"facilities"
        },
        "geometry":{"type":"Point","coordinates":[132.80211210504606,32.74824076370042]}},
        
        { "type": "Feature", "properties": { 
            "_name":"見残し海岸",
            "_attr":"wc",
            "_image":[""],
            "_explanation":"",
            "_offset":10,
            "_attribution":"facilities"
        },
        "geometry":{"type":"Point","coordinates":[132.8693175341232,32.774097308513134]}},
        
        { "type": "Feature", "properties": { 
            "_name":"千尋岬",
            "_attr":"P",
            "_image":[""],
            "_explanation":"",
            "_offset":10,
            "_attribution":"facilities"
        },
        "geometry":{"type":"Point","coordinates":[132.87239348901497,32.776322573353305]}},
        
        { "type": "Feature", "properties": { 
            "_name":"万次郎足湯",
            "_attr":"P wc",
            "_image":["manjiroP1","manjiroP2","manjiroWC1","manjiroWC2"],
            "_note" :["駐車場","駐車場","トイレは足湯施設の中","トイレ入り口"],
            "_explanation":"",
            "_offset":10,
            "_attribution":"facilities"
        },
        "geometry":{"type":"Point","coordinates":[133.01414691558455,32.72469933968927]}},
        
        { "type": "Feature", "properties": { 
            "_name":"うすばえ桜公園",
            "_attr":"P wc",
            "_image":["sakuraP","sakuraWC"],
            "_note" :["駐車場","トイレ外観"],
            "_explanation":"多目的トイレ有",
            "_offset":10,
            "_attribution":"facilities"
        },
        "geometry":{"type":"Point","coordinates":[132.9757207632065,32.7343423075394]}},
        
        { "type": "Feature", "properties": { 
            "_name":"大戸とんぼ公園",
            "_attr":"P",
            "_image":[""],
            "_explanation":"",
            "_offset":10,
            "_attribution":"facilities"
        },
        "geometry":{"type":"Point","coordinates":[132.99703574259183,32.73017220123483]}},
        
        { "type": "Feature", "properties": { 
            "_name":"中浜区長場前",
            "_attr":"wc",
            "_image":[""],
            "_explanation":"",
            "_offset":10,
            "_attribution":"facilities"
        },
        "geometry":{"type":"Point","coordinates":[132.96409392409262,32.75833701980749]}},
        
        { "type": "Feature", "properties": { 
            "_name":"サイト解説板　鹿島",
            "_attr":"説明",
            "_image":["kashima"],
            "_explanation":"",
            "_offset":100,
            "_attribution":"facilities"
        },
        "geometry":{"type":"Point","coordinates":[132.96085810674415,32.77774970785308]}},
        
        { "type": "Feature", "properties": { 
            "_name":"サインせんせ　桜浜",
            "_attr":"説明",
            "_image":["sakurahama"],
            "_explanation":"",
            "_offset":100,
            "_attribution":"facilities"
        },
        "geometry":{"type":"Point","coordinates":[132.86527383301294,32.789352940281965]}},
        
        { "type": "Feature", "properties": { 
            "_name":"サインせんせ　竜串海岸",
            "_attr":"説明",
            "_image":["tatsukushi"],
            "_explanation":"",
            "_offset":100,
            "_attribution":"facilities"
        },
        "geometry":{"type":"Point","coordinates":[132.86643361992904,32.78647250596202]}},
        
        { "type": "Feature", "properties": { 
            "_name":"サインせんせ　見残し",
            "_attr":"説明",
            "_image":["minokoshi"],
            "_explanation":"",
            "_offset":100,
            "_attribution":"facilities"
        },
        "geometry":{"type":"Point","coordinates":[132.86899137470755,32.774399606823636]}},
         
        { "type": "Feature", "properties": { 
            "_name":"里程表示大　緑町",
            "_attr":"里程大",
            "_image":["midori"], 
            "_explanation":"うみのわ　まで 13km",
            "_offset":100,
            "_attribution":"facilities"
        },
        "geometry":{"type":"Point","coordinates":[132.96506810194845,32.77523593413182]}},
        
        { "type": "Feature", "properties": { 
            "_name":"里程表示大　山伏",
            "_attr":"里程大",
            "_image":["yamabushi"], 
            "_explanation":"うみのわ　まで 5.5km",
            "_offset":100,
            "_attribution":"facilities"
        },
        "geometry":{"type":"Point","coordinates":[132.9040004207303,32.7940756953705]}},
                
        { "type": "Feature", "properties": { 
            "_name":"里程表示大　市野々",
            "_attr":"里程大",
            "_image":["ichinono"], 
            "_explanation":"うみのわ　まで 22km",
            "_offset":100,
            "_attribution":"facilities"
        },
        "geometry":{"type":"Point","coordinates":[132.9411667474206,32.89720676456699]}},
        
        { "type": "Feature", "properties": { 
            "_name":"里程表示小　太田",
            "_attr":"里程小",
            "_image":["ota"], 
            "_explanation":"うみのわ　まで 6km",
            "_offset":100,
            "_attribution":"facilities"
        },
        "geometry":{"type":"Point","coordinates":[132.90538412715262,32.79229950812379]}},
        
        { "type": "Feature", "properties": { 
            "_name":"里程表示小　中益野",
            "_attr":"里程小",
            "_image":["nakamashino"], 
            "_explanation":"うみのわ　まで 4.7km",
            "_offset":100,
            "_attribution":"facilities"
        },
        "geometry":{"type":"Point","coordinates":[132.90241198509156,32.80159114402799]}},
        
        { "type": "Feature", "properties": { 
            "_name":"里程表示小　下川口",
            "_attr":"里程小",
            "_image":["shimokawaguchi"], 
            "_explanation":"うみのわ　まで 2km",
            "_offset":100,
            "_attribution":"facilities"
        },
        "geometry":{"type":"Point","coordinates":[132.84735784531364,32.782756098362476]}},
        
        { "type": "Feature", "properties": { 
            "_name":"里程表示小　久百々",
            "_attr":"里程小",
            "_image":["kumomo"], 
            "_explanation":"うみのわ　まで 15km",
            "_offset":100,
            "_attribution":"facilities"
        },
        "geometry":{"type":"Point","coordinates":[132.95472867448356,32.847408983272395]}},

        { "type": "Feature", "properties": { 
            "_name":"里程表示小　大岐",
            "_attr":"里程小",
            "_image":["oki_road"], 
            "_explanation":"うみのわ　まで 13km",
            "_offset":100,
            "_attribution":"facilities"
        },
        "geometry":{"type":"Point","coordinates":[132.95621681219927, 32.8337552967912]}},

        { "type": "Feature", "properties": { 
            "_name":"里程表示小　市野瀬",
            "_attr":"里程小",
            "_image":["ichinose_road"], 
            "_explanation":"うみのわ　まで 23km",
            "_offset":100,
            "_attribution":"facilities"
        },
        "geometry":{"type":"Point","coordinates":[132.93625688565956, 32.90616918779288]}},
        
        { "type": "Feature", "properties": { 
            "_name":"解説板　市野瀬",
            "_attr":"説明",
            "_image":["shimonokae"], 
            "_explanation":"",
            "_offset":100,
            "_attribution":"facilities"
        },
        "geometry":{"type":"Point","coordinates":[132.93567323802566,32.90287655283777]}},
        
        { "type": "Feature", "properties": { 
            "_name":"解説板　大岐の浜",
            "_attr":"説明",
            "_image":["oki"], 
            "_explanation":"",
            "_offset":100,
            "_attribution":"facilities"
        },
        "geometry":{"type":"Point","coordinates":[132.95165276671472,32.82586182686342]}},
        
        { "type": "Feature", "properties": { 
            "_name":"解説板　大戸",
            "_attr":"説明",
            "_image":["odo"],
            "_explanation":"",
            "_offset":100,
            "_attribution":"facilities"
        },
        "geometry":{"type":"Point","coordinates":[132.99701213869415,32.73002279572754]}},
        
        { "type": "Feature", "properties": { 
            "_name":"解説板　白山洞門",
            "_attr":"説明",
            "_image":["hakusan_domon"], 
            "_explanation":"",
            "_offset":100,
            "_attribution":"facilities"
        },
        "geometry":{"type":"Point","coordinates":[133.0141063930569,32.72458298211147]}},
        
        { "type": "Feature", "properties": { 
            "_name":"解説板　長島",
            "_attr":"説明",
            "_image":["nagashima"],
             "_explanation":"",
            "_offset":100,
            "_attribution":"facilities"
        },
        "geometry":{"type":"Point","coordinates":[132.85970234857817,32.78994925025655]}},
        
        { "type": "Feature", "properties": { 
            "_name":"解説板　叶崎",
            "_attr":"説明",
            "_image":["kanaezakiBoard1","kanaezakiBoard2"],
             "_explanation":"",
            "_offset":100,
            "_attribution":"facilities"
        },
        "geometry":{"type":"Point","coordinates":[132.8025348185838,32.74980063411782]}},

        { "type": "Feature", "properties": { 
            "_name":"解説板　ビジターセンター前",
            "_attr":"説明",
            "_image":["VC"], 
            "_explanation":"",
            "_offset":100,
            "_attribution":"facilities"
        },
        "geometry":{"type":"Point","coordinates":[132.86312762927903,32.79110355168752]}},
        
        { "type": "Feature", "properties": { 
            "_name":"土佐清水ジオパーク拠点施設<br>竜串ビジターセンター　うみのわ<br>Tatsukushi Visitor Center uminowa",
            "_attr":"uminowa",
            "_image":["vc_uminowa"], 
            "_explanation":"足摺宇和海国立公園の竜串ビジターセンターuminowaを土佐清水ジオパークの拠点施設として利用。",
            "_offset":1,
            "_attribution":"facilities"
        },
        "geometry":{"type":"Point","coordinates":[132.8631,32.79104751216054]}}
    ]
    }